country,state,city,station,last_update,latitude,longitude,pollutant_id,pollutant_min,pollutant_max,pollutant_avg
India,Andhra_Pradesh,Kadapa,"Yerramukkapalli, Kadapa - APPCB",14-03-2025 10:00,14.465052,78.824187,NH3,4,6,5
India,Andhra_Pradesh,Rajamahendravaram,"Anand Kala Kshetram, Rajamahendravaram - APPCB",14-03-2025 10:00,16.9872867,81.7363176,PM2.5,12,56,31
India,Andhra_Pradesh,Rajamahendravaram,"Anand Kala Kshetram, Rajamahendravaram - APPCB",14-03-2025 10:00,16.9872867,81.7363176,NO2,5,95,19
India,Andhra_Pradesh,Vijayawada,"HB Colony, Vijayawada - APPCB",14-03-2025 10:00,16.536107,80.594233,NH3,3,3,3
India,Andhra_Pradesh,Vijayawada,"HB Colony, Vijayawada - APPCB",14-03-2025 10:00,16.536107,80.594233,OZONE,10,43,16
India,Andhra_Pradesh,Vijayawada,"Kanuru, Vijayawada - APPCB",14-03-2025 10:00,16.486692,80.699436,PM10,26,92,39
India,Andhra_Pradesh,Tirupati,"Vaikuntapuram, Tirupati - APPCB",14-03-2025 10:00,13.615387,79.40923,PM2.5,24,225,76
India,Andhra_Pradesh,Tirupati,"Vaikuntapuram, Tirupati - APPCB",14-03-2025 10:00,13.615387,79.40923,PM10,23,145,62
India,Andaman and Nicobar,Sri Vijaya Puram,"Police Line, Sri Vijaya Puram - ANPCC",14-03-2025 10:00,11.654054,92.734055,PM2.5,5,60,26
India,Andhra_Pradesh,Rajamahendravaram,"Anand Kala Kshetram, Rajamahendravaram - APPCB",14-03-2025 10:00,16.9872867,81.7363176,OZONE,6,6,6
India,Andhra_Pradesh,Chittoor,"Gangineni Cheruvu, Chittoor - APPCB",14-03-2025 10:00,13.20488,79.097889,NO2,12,17,14
India,Andhra_Pradesh,Kadapa,"Yerramukkapalli, Kadapa - APPCB",14-03-2025 10:00,14.465052,78.824187,PM2.5,38,98,67
India,Andhra_Pradesh,Vijayawada,"HB Colony, Vijayawada - APPCB",14-03-2025 10:00,16.536107,80.594233,NO2,10,12,11
India,Andhra_Pradesh,Anantapur,"Gulzarpet, Anantapur - APPCB",14-03-2025 10:00,14.675886,77.593027,OZONE,4,51,15
India,Andhra_Pradesh,Anantapur,"Gulzarpet, Anantapur - APPCB",14-03-2025 10:00,14.675886,77.593027,CO,8,43,10
India,Bihar,Arrah,"New DM Office, Arrah - BSPCB",14-03-2025 10:00,25.5626095,84.663264,CO,15,27,22
India,Bihar,Aurangabad,"Gurdeo Nagar, Aurangabad - BSPCB",14-03-2025 10:00,24.75746,84.366208,PM10,80,372,176
India,Bihar,Aurangabad,"Gurdeo Nagar, Aurangabad - BSPCB",14-03-2025 10:00,24.75746,84.366208,OZONE,15,63,22
India,Bihar,Begusarai,"Lohiyanagar, Begusarai - BSPCB",14-03-2025 10:00,25.42742023,86.13886079,PM10,89,153,117
India,Andhra_Pradesh,Vijayawada,"Kanuru, Vijayawada - APPCB",14-03-2025 10:00,16.486692,80.699436,OZONE,21,35,34
India,Andhra_Pradesh,Vijayawada,"Rajiv Gandhi Park, Vijayawada - APPCB",14-03-2025 10:00,16.509717,80.612222,PM2.5,63,83,71
India,Andhra_Pradesh,Vijayawada,"Rajiv Gandhi Park, Vijayawada - APPCB",14-03-2025 10:00,16.509717,80.612222,PM10,66,86,74
India,Andhra_Pradesh,Vijayawada,"Rajiv Gandhi Park, Vijayawada - APPCB",14-03-2025 10:00,16.509717,80.612222,NO2,45,67,56
India,Andhra_Pradesh,Vijayawada,"Rajiv Gandhi Park, Vijayawada - APPCB",14-03-2025 10:00,16.509717,80.612222,SO2,8,11,10
India,Bihar,Bettiah,"Kamalnath Nagar, Bettiah - BSPCB",14-03-2025 10:00,26.80365,84.51954,PM10,111,166,142
India,Bihar,Bettiah,"Kamalnath Nagar, Bettiah - BSPCB",14-03-2025 10:00,26.80365,84.51954,NH3,6,7,6
India,Bihar,Bettiah,"Kamalnath Nagar, Bettiah - BSPCB",14-03-2025 10:00,26.80365,84.51954,SO2,18,23,21
India,Bihar,Bhagalpur,"DM Office_Kachari Chowk, Bhagalpur - BSPCB",14-03-2025 10:00,25.251013,86.989001,NO2,17,30,22
India,Assam,Guwahati,"LGBI Airport, Guwahati - PCBA",14-03-2025 10:00,26.10887,91.589544,OZONE,12,20,16
India,Assam,Guwahati,"Pan Bazaar, Guwahati - PCBA",14-03-2025 10:00,26.1875,91.744194,OZONE,16,17,17
India,Assam,Guwahati,"Railway Colony, Guwahati - PCBA",14-03-2025 10:00,26.181742,91.78063,PM2.5,40,83,63
India,Andhra_Pradesh,Vijayawada,"Rajiv Nagar, Vijayawada - APPCB",14-03-2025 10:00,16.554731,80.64911,NO2,NA,NA,NA
India,Andhra_Pradesh,Vijayawada,"Rajiv Nagar, Vijayawada - APPCB",14-03-2025 10:00,16.554731,80.64911,OZONE,9,57,14
India,Assam,Silchar,"Tarapur, Silchar - PCBA",14-03-2025 10:00,24.82827,92.79525,PM2.5,22,80,51
India,Assam,Silchar,"Tarapur, Silchar - PCBA",14-03-2025 10:00,24.82827,92.79525,CO,10,30,18
India,Andhra_Pradesh,Visakhapatnam,"GVM Corporation, Visakhapatnam - APPCB",14-03-2025 10:00,17.72,83.3,OZONE,8,68,9
India,Assam,Guwahati,"Railway Colony, Guwahati - PCBA",14-03-2025 10:00,26.181742,91.78063,SO2,17,18,18
India,Assam,Guwahati,"IITG, Guwahati - PCBA",14-03-2025 10:00,26.2028636,91.70046436,CO,8,10,10
India,Bihar,Gaya,"SFTI Kusdihra, Gaya - BSPCB",14-03-2025 10:00,24.762518,84.982348,PM2.5,23,158,73
India,Bihar,Gaya,"SFTI Kusdihra, Gaya - BSPCB",14-03-2025 10:00,24.762518,84.982348,NO2,18,25,21
India,Bihar,Gaya,"SFTI Kusdihra, Gaya - BSPCB",14-03-2025 10:00,24.762518,84.982348,CO,20,102,77
India,Bihar,Gaya,"SFTI Kusdihra, Gaya - BSPCB",14-03-2025 10:00,24.762518,84.982348,OZONE,4,65,12
India,Bihar,Hajipur,"Industrial Area, Hajipur - BSPCB",14-03-2025 10:00,25.697189,85.2459,NH3,8,13,10
India,Bihar,Motihari,"Gandak Colony, Motihari - BSPCB",14-03-2025 10:00,26.63086,84.90051,NH3,3,3,3
India,Bihar,Munger,"Town Hall, Munger - BSPCB",14-03-2025 10:00,25.376776,86.471523,SO2,12,29,21
India,Bihar,Muzaffarpur,"Buddha Colony, Muzaffarpur - BSPCB",14-03-2025 10:00,26.11442,85.39813,PM2.5,NA,NA,NA
India,Bihar,Muzaffarpur,"Buddha Colony, Muzaffarpur - BSPCB",14-03-2025 10:00,26.11442,85.39813,PM10,NA,NA,NA
India,Bihar,Kishanganj,"SDM Office_Khagra, Kishanganj - BSPCB",14-03-2025 10:00,26.0881305,87.93840336,NO2,23,31,26
India,Bihar,Manguraha,"Forest Rest House, Manguraha - BSPCB",14-03-2025 10:00,27.308328,84.531742,PM2.5,75,173,120
India,Bihar,Manguraha,"Forest Rest House, Manguraha - BSPCB",14-03-2025 10:00,27.308328,84.531742,PM10,72,128,98
India,Bihar,Bihar Sharif,"D M Colony, Bihar Sharif - BSPCB",14-03-2025 10:00,25.204762,85.51496,SO2,NA,NA,NA
India,Bihar,Buxar,"Charitra Van, Buxar - BSPCB",14-03-2025 10:00,25.56752,83.966379,PM10,92,217,129
India,Bihar,Chhapra,"Darshan Nagar, Chhapra - BSPCB",14-03-2025 10:00,25.7808257,84.7446768,PM2.5,43,183,99
India,Bihar,Chhapra,"Darshan Nagar, Chhapra - BSPCB",14-03-2025 10:00,25.7808257,84.7446768,NO2,12,87,21
India,Bihar,Chhapra,"Darshan Nagar, Chhapra - BSPCB",14-03-2025 10:00,25.7808257,84.7446768,SO2,1,132,78
India,Bihar,Bhagalpur,"Mayaganj, Bhagalpur - BSPCB",14-03-2025 10:00,25.265194,87.012947,PM10,104,282,162
India,Bihar,Bihar Sharif,"D M Colony, Bihar Sharif - BSPCB",14-03-2025 10:00,25.204762,85.51496,NO2,NA,NA,NA
India,Bihar,Buxar,"Charitra Van, Buxar - BSPCB",14-03-2025 10:00,25.56752,83.966379,CO,34,100,67
India,Bihar,Bhagalpur,"Mayaganj, Bhagalpur - BSPCB",14-03-2025 10:00,25.265194,87.012947,NO2,9,12,10
India,Bihar,Samastipur,"DM Office_Kasipur, Samastipur - BSPCB",14-03-2025 10:00,25.859655,85.77944,OZONE,7,10,8
India,Bihar,Sasaram,"Dada Peer, Sasaram - BSPCB",14-03-2025 10:00,24.952822,84.002396,PM10,76,141,103
India,Bihar,Sasaram,"Dada Peer, Sasaram - BSPCB",14-03-2025 10:00,24.952822,84.002396,NH3,3,3,3
India,Bihar,Siwan,"Chitragupta Nagar, Siwan - BSPCB",14-03-2025 10:00,26.2271665,84.3570427,PM2.5,NA,NA,NA
India,Bihar,Siwan,"Chitragupta Nagar, Siwan - BSPCB",14-03-2025 10:00,26.2271665,84.3570427,PM10,NA,NA,NA
India,Bihar,Siwan,"Chitragupta Nagar, Siwan - BSPCB",14-03-2025 10:00,26.2271665,84.3570427,NO2,NA,NA,NA
India,Bihar,Purnia,"Mariam Nagar, Purnia - BSPCB",14-03-2025 10:00,25.366336,87.117468,PM2.5,70,301,136
India,Bihar,Purnia,"Mariam Nagar, Purnia - BSPCB",14-03-2025 10:00,25.366336,87.117468,CO,42,80,73
India,Bihar,Rajgir,"Dangi Tola, Rajgir - BSPCB",14-03-2025 10:00,25.0328,85.41948,NO2,7,10,9
India,Bihar,Saharsa,"Police Line, Saharsa - BSPCB",14-03-2025 10:00,25.892357,86.590325,PM2.5,28,223,97
India,Bihar,Saharsa,"Police Line, Saharsa - BSPCB",14-03-2025 10:00,25.892357,86.590325,SO2,16,18,17
India,Bihar,Muzaffarpur,"MIT-Daudpur Kothi, Muzaffarpur - BSPCB",14-03-2025 10:00,26.1403345,85.3650192,SO2,6,7,6
India,Bihar,Muzaffarpur,"MIT-Daudpur Kothi, Muzaffarpur - BSPCB",14-03-2025 10:00,26.1403345,85.3650192,CO,66,104,97
India,Bihar,Muzaffarpur,"Muzaffarpur Collectorate, Muzaffarpur - BSPCB",14-03-2025 10:00,26.1209,85.3647,OZONE,6,55,10
India,Bihar,Patna,"Govt. High School Shikarpur, Patna - BSPCB",14-03-2025 10:00,25.592539,85.227158,PM10,191,286,224
India,Chandigarh,Chandigarh,"Sector-25, Chandigarh - CPCC",14-03-2025 10:00,30.751462,76.762879,NO2,16,44,30
India,Chandigarh,Chandigarh,"Sector 22, Chandigarh - CPCC",14-03-2025 10:00,30.735567,76.775714,CO,24,104,36
India,Chandigarh,Chandigarh,"Sector 22, Chandigarh - CPCC",14-03-2025 10:00,30.735567,76.775714,SO2,11,38,18
India,Bihar,Patna,"Muradpur, Patna - BSPCB",14-03-2025 10:00,25.619651,85.147382,PM2.5,100,372,249
India,Bihar,Patna,"Muradpur, Patna - BSPCB",14-03-2025 10:00,25.619651,85.147382,NO2,14,71,36
India,Chhattisgarh,Bhilai,"Civic Center, Bhilai - Bhilai Steel Plant",14-03-2025 10:00,21.185571,81.343175,PM10,46,142,78
India,Chhattisgarh,Bhilai,"Civic Center, Bhilai - Bhilai Steel Plant",14-03-2025 10:00,21.185571,81.343175,OZONE,9,42,11
India,Chhattisgarh,Bhilai,"Hathkhoj, Bhilai - CECB",14-03-2025 10:00,21.224231,81.40835,NO2,NA,NA,NA
India,Chhattisgarh,Bhilai,"Hathkhoj, Bhilai - CECB",14-03-2025 10:00,21.224231,81.40835,SO2,14,81,38
India,Chhattisgarh,Bilaspur,"Mangala, Bilaspur - NTPC",14-03-2025 10:00,22.08815,82.13737,SO2,11,15,14
India,Chhattisgarh,Chhal,"Nawapara SECL Colony, Chhal - CECB",14-03-2025 10:00,22.118125,83.140608,PM2.5,79,331,141
India,Chhattisgarh,Korba,"Rampur, Korba - CECB",14-03-2025 10:00,22.368195,82.746431,PM2.5,NA,NA,NA
India,Chhattisgarh,Kunjemura,"OP Jindal School, Kunjemura - CECB",14-03-2025 10:00,22.12665,83.483212,PM2.5,41,172,95
India,Chhattisgarh,Kunjemura,"OP Jindal School, Kunjemura - CECB",14-03-2025 10:00,22.12665,83.483212,NH3,2,2,2
India,Chhattisgarh,Kunjemura,"OP Jindal School, Kunjemura - CECB",14-03-2025 10:00,22.12665,83.483212,OZONE,8,16,8
India,Chhattisgarh,Milupara,"Govt. Higher Secondary School, Milupara - CECB",14-03-2025 10:00,22.1910172,83.5197009,PM2.5,117,307,201
India,Chhattisgarh,Milupara,"Govt. Higher Secondary School, Milupara - CECB",14-03-2025 10:00,22.1910172,83.5197009,NO2,21,85,56
India,Chhattisgarh,Milupara,"Govt. Higher Secondary School, Milupara - CECB",14-03-2025 10:00,22.1910172,83.5197009,NH3,1,2,1
India,Chhattisgarh,Milupara,"Govt. Higher Secondary School, Milupara - CECB",14-03-2025 10:00,22.1910172,83.5197009,SO2,7,48,19
India,Chhattisgarh,Tumidih,"OP Jindal Industrial Park, Tumidih - CECB",14-03-2025 10:00,22.06631475,83.33820077,SO2,6,13,8
India,Delhi,Delhi,"Alipur, Delhi - DPCC",14-03-2025 10:00,28.815329,77.15301,PM10,109,287,193
India,Delhi,Delhi,"Alipur, Delhi - DPCC",14-03-2025 10:00,28.815329,77.15301,SO2,3,38,16
India,Chandigarh,Chandigarh,"Sector-25, Chandigarh - CPCC",14-03-2025 10:00,30.751462,76.762879,OZONE,1,63,6
India,Chandigarh,Chandigarh,"Sector-53, Chandigarh - CPCC",14-03-2025 10:00,30.719859,76.738637,PM10,29,143,89
India,Chandigarh,Chandigarh,"Sector-53, Chandigarh - CPCC",14-03-2025 10:00,30.719859,76.738637,CO,26,109,51
India,Chandigarh,Chandigarh,"Sector-53, Chandigarh - CPCC",14-03-2025 10:00,30.719859,76.738637,OZONE,2,88,11
India,Chhattisgarh,Raipur,"Bhatagaon New ISBT, Raipur - CECB",14-03-2025 10:00,21.219665,81.630094,PM2.5,5,216,56
India,Chhattisgarh,Raipur,"Bhatagaon New ISBT, Raipur - CECB",14-03-2025 10:00,21.219665,81.630094,OZONE,8,30,13
India,Chhattisgarh,Raipur,"Siltara Phase-II, Raipur - CECB",14-03-2025 10:00,21.371751,81.664929,OZONE,4,46,7
India,Chhattisgarh,Raipur,"Siltara Phase-II, Raipur - CECB",14-03-2025 10:00,21.371751,81.664929,PM10,NA,NA,NA
India,Chandigarh,Chandigarh,"Sector-25, Chandigarh - CPCC",14-03-2025 10:00,30.751462,76.762879,NH3,19,33,28
India,Chhattisgarh,Bhilai,"32Bungalows, Bhilai - CECB",14-03-2025 10:00,21.194815,81.31477,NH3,1,4,3
India,Delhi,Delhi,"Ashok Vihar, Delhi - DPCC",14-03-2025 10:00,28.695381,77.181665,CO,16,121,77
India,Delhi,Delhi,"Ashok Vihar, Delhi - DPCC",14-03-2025 10:00,28.695381,77.181665,OZONE,2,296,13
India,Delhi,Delhi,"Aya Nagar, Delhi - IMD",14-03-2025 10:00,28.4706914,77.1099364,PM2.5,52,240,119
India,Delhi,Delhi,"Aya Nagar, Delhi - IMD",14-03-2025 10:00,28.4706914,77.1099364,CO,26,90,75
India,Delhi,Delhi,"Bawana, Delhi - DPCC",14-03-2025 10:00,28.7762,77.051074,PM2.5,155,400,260
India,Delhi,Delhi,"Bawana, Delhi - DPCC",14-03-2025 10:00,28.7762,77.051074,SO2,9,67,22
India,Delhi,Delhi,"Burari Crossing, Delhi - IMD",14-03-2025 10:00,28.7256504,77.2011573,OZONE,8,46,9
India,Delhi,Delhi,"Jawaharlal Nehru Stadium, Delhi - DPCC",14-03-2025 10:00,28.58028,77.233829,OZONE,18,98,38
India,Delhi,Delhi,"Lodhi Road, Delhi - IITM",14-03-2025 10:00,28.588333,77.221667,PM2.5,91,273,193
India,Delhi,Delhi,"Lodhi Road, Delhi - IMD",14-03-2025 10:00,28.5918245,77.2273074,PM10,123,189,152
India,Delhi,Delhi,"Mandir Marg, Delhi - DPCC",14-03-2025 10:00,28.636429,77.201067,PM2.5,68,321,177
India,Delhi,Delhi,"Mandir Marg, Delhi - DPCC",14-03-2025 10:00,28.636429,77.201067,NO2,112,169,141
India,Delhi,Delhi,"North Campus, DU, Delhi - IMD",14-03-2025 10:00,28.6573814,77.1585447,NO2,26,90,58
India,Delhi,Delhi,"North Campus, DU, Delhi - IMD",14-03-2025 10:00,28.6573814,77.1585447,CO,14,136,101
India,Delhi,Delhi,"North Campus, DU, Delhi - IMD",14-03-2025 10:00,28.6573814,77.1585447,OZONE,6,115,11
India,Delhi,Delhi,"Okhla Phase-2, Delhi - DPCC",14-03-2025 10:00,28.530785,77.271255,PM2.5,73,363,206
India,Delhi,Delhi,"Patparganj, Delhi - DPCC",14-03-2025 10:00,28.623763,77.287209,NO2,30,108,69
India,Delhi,Delhi,"Mundka, Delhi - DPCC",14-03-2025 10:00,28.684678,77.076574,CO,10,74,62
India,Delhi,Delhi,"NSIT Dwarka, Delhi - CPCB",14-03-2025 10:00,28.60909,77.0325413,NH3,10,12,11
India,Delhi,Delhi,"Najafgarh, Delhi - DPCC",14-03-2025 10:00,28.570173,76.933762,NH3,10,12,11
India,Delhi,Delhi,"Najafgarh, Delhi - DPCC",14-03-2025 10:00,28.570173,76.933762,OZONE,2,149,13
India,Delhi,Delhi,"Narela, Delhi - DPCC",14-03-2025 10:00,28.822836,77.101981,CO,31,62,52
India,Delhi,Delhi,"Nehru Nagar, Delhi - DPCC",14-03-2025 10:00,28.56789,77.250515,OZONE,4,304,16
India,Delhi,Delhi,"North Campus, DU, Delhi - IMD",14-03-2025 10:00,28.6573814,77.1585447,PM2.5,74,373,211
India,Delhi,Delhi,"Dwarka-Sector 8, Delhi - DPCC ",14-03-2025 10:00,28.5710274,77.0719006,PM10,103,413,201
India,Delhi,Delhi,"Dwarka-Sector 8, Delhi - DPCC ",14-03-2025 10:00,28.5710274,77.0719006,SO2,12,42,24
India,Delhi,Delhi,"IGI Airport (T3), Delhi - IMD",14-03-2025 10:00,28.5627763,77.1180053,NO2,67,116,86
India,Delhi,Delhi,"ITO, Delhi - CPCB",14-03-2025 10:00,28.628624,77.24106,OZONE,8,73,9
India,Delhi,Delhi,"Jawaharlal Nehru Stadium, Delhi - DPCC",14-03-2025 10:00,28.58028,77.233829,NO2,37,96,74
India,Delhi,Delhi,"Jawaharlal Nehru Stadium, Delhi - DPCC",14-03-2025 10:00,28.58028,77.233829,NH3,9,12,11
India,Delhi,Delhi,"IHBAS, Dilshad Garden, Delhi - CPCB",14-03-2025 10:00,28.6811736,77.3025234,PM2.5,33,313,130
India,Delhi,Delhi,"IHBAS, Dilshad Garden, Delhi - CPCB",14-03-2025 10:00,28.6811736,77.3025234,NH3,9,10,10
India,Delhi,Delhi,"Chandni Chowk, Delhi - IITM",14-03-2025 10:00,28.656756,77.227234,PM10,123,218,150
India,Delhi,Delhi,"Shadipur, Delhi - CPCB",14-03-2025 10:00,28.6514781,77.1473105,SO2,2,81,44
India,Delhi,Delhi,"Shadipur, Delhi - CPCB",14-03-2025 10:00,28.6514781,77.1473105,CO,36,82,43
India,Delhi,Delhi,"Sirifort, Delhi - CPCB",14-03-2025 10:00,28.5504249,77.2159377,NO2,45,51,46
India,Delhi,Delhi,"Sirifort, Delhi - CPCB",14-03-2025 10:00,28.5504249,77.2159377,CO,28,84,77
India,Delhi,Delhi,"Sonia Vihar, Delhi - DPCC",14-03-2025 10:00,28.710508,77.249485,PM10,NA,NA,NA
India,Delhi,Delhi,"Sri Aurobindo Marg, Delhi - DPCC",14-03-2025 10:00,28.531346,77.190156,PM2.5,51,152,83
India,Delhi,Delhi,"Sri Aurobindo Marg, Delhi - DPCC",14-03-2025 10:00,28.531346,77.190156,NH3,5,8,7
India,Delhi,Delhi,"Vivek Vihar, Delhi - DPCC",14-03-2025 10:00,28.672342,77.31526,PM10,138,250,183
India,Delhi,Delhi,"Wazirpur, Delhi - DPCC",14-03-2025 10:00,28.699793,77.165453,PM2.5,84,407,271
India,Delhi,Delhi,"Wazirpur, Delhi - DPCC",14-03-2025 10:00,28.699793,77.165453,PM10,157,409,263
India,Delhi,Delhi,"Wazirpur, Delhi - DPCC",14-03-2025 10:00,28.699793,77.165453,NH3,14,19,16
India,Delhi,Delhi,"Wazirpur, Delhi - DPCC",14-03-2025 10:00,28.699793,77.165453,OZONE,10,303,21
India,Gujarat,Ahmedabad,"Chandkheda, Ahmedabad - IITM",14-03-2025 10:00,23.107969,72.574648,SO2,2,59,29
India,Gujarat,Ahmedabad,"Chandkheda, Ahmedabad - IITM",14-03-2025 10:00,23.107969,72.574648,OZONE,10,117,21
India,Gujarat,Ahmedabad,"Gyaspur, Ahmedabad - IITM",14-03-2025 10:00,22.977134,72.553024,NO2,36,129,71
India,Gujarat,Ahmedabad,"Sardar Vallabhbhai Patel Stadium, Ahmedabad - IITM",14-03-2025 10:00,23.04307,72.562968,NO2,45,82,53
India,Gujarat,Ahmedabad,"Sardar Vallabhbhai Patel Stadium, Ahmedabad - IITM",14-03-2025 10:00,23.04307,72.562968,NH3,1,13,6
India,Gujarat,Ankleshwar,"GIDC, Ankleshwar - GPCB",14-03-2025 10:00,21.613267,73.010555,PM10,44,111,73
India,Gujarat,Ankleshwar,"GIDC, Ankleshwar - GPCB",14-03-2025 10:00,21.613267,73.010555,NO2,50,50,50
India,Gujarat,Ankleshwar,"GIDC, Ankleshwar - GPCB",14-03-2025 10:00,21.613267,73.010555,NH3,5,5,5
India,Gujarat,Ankleshwar,"GIDC, Ankleshwar - GPCB",14-03-2025 10:00,21.613267,73.010555,OZONE,32,40,36
India,Delhi,Delhi,"Rohini, Delhi - DPCC",14-03-2025 10:00,28.732528,77.11992,PM2.5,88,404,271
India,Delhi,Delhi,"Rohini, Delhi - DPCC",14-03-2025 10:00,28.732528,77.11992,NO2,22,121,63
India,Delhi,Delhi,"Rohini, Delhi - DPCC",14-03-2025 10:00,28.732528,77.11992,NH3,10,15,13
India,Delhi,Delhi,"Rohini, Delhi - DPCC",14-03-2025 10:00,28.732528,77.11992,SO2,9,59,26
India,Delhi,Delhi,"Shadipur, Delhi - CPCB",14-03-2025 10:00,28.6514781,77.1473105,PM10,82,244,173
India,Gujarat,Gandhinagar,"Sector-10, Gandhinagar - GPCB",14-03-2025 10:00,23.221714,72.654328,PM10,28,102,65
India,Gujarat,Gandhinagar,"Sector-10, Gandhinagar - GPCB",14-03-2025 10:00,23.221714,72.654328,NH3,3,3,3
India,Gujarat,Gandhinagar,"Sector-10, Gandhinagar - GPCB",14-03-2025 10:00,23.221714,72.654328,SO2,4,6,5
India,Gujarat,Gandhinagar,"Sector-10, Gandhinagar - GPCB",14-03-2025 10:00,23.221714,72.654328,CO,46,76,55
India,Gujarat,Ahmedabad,"Maninagar, Ahmedabad - GPCB",14-03-2025 10:00,23.002657,72.591912,NO2,30,31,30
India,Gujarat,Ahmedabad,"Raikhad, Ahmedabad - IITM",14-03-2025 10:00,23.020509,72.579261,PM2.5,36,64,47
India,Gujarat,Ahmedabad,"Raikhad, Ahmedabad - IITM",14-03-2025 10:00,23.020509,72.579261,NH3,4,7,5
India,Delhi,Delhi,"Pusa, Delhi - IMD",14-03-2025 10:00,28.63611,77.173332,NO2,27,61,48
India,Delhi,Delhi,"R K Puram, Delhi - DPCC",14-03-2025 10:00,28.563262,77.186937,PM2.5,87,333,227
India,Delhi,Delhi,"R K Puram, Delhi - DPCC",14-03-2025 10:00,28.563262,77.186937,PM10,135,292,182
India,Delhi,Delhi,"Pusa, Delhi - DPCC",14-03-2025 10:00,28.639652,77.146275,PM10,119,216,149
India,Delhi,Delhi,"Pusa, Delhi - DPCC",14-03-2025 10:00,28.639652,77.146275,NO2,43,120,83
India,Delhi,Delhi,"Pusa, Delhi - DPCC",14-03-2025 10:00,28.639652,77.146275,OZONE,2,16,2
India,Gujarat,Ahmedabad,"Rakhial, Ahmedabad - IITM",14-03-2025 10:00,23.016834,72.625775,NO2,13,39,19
India,Gujarat,Ahmedabad,"Rakhial, Ahmedabad - IITM",14-03-2025 10:00,23.016834,72.625775,OZONE,8,122,31
India,Haryana,Faridabad,"Sector 30, Faridabad - HSPCB",14-03-2025 10:00,28.4417,77.3217,PM10,102,135,117
India,Haryana,Gurugram,"NISE Gwal Pahari, Gurugram - IMD",14-03-2025 10:00,28.422681,77.148944,NO2,9,35,18
India,Haryana,Gurugram,"NISE Gwal Pahari, Gurugram - IMD",14-03-2025 10:00,28.422681,77.148944,CO,36,69,52
India,Haryana,Gurugram,"Teri Gram, Gurugram - HSPCB",14-03-2025 10:00,28.4275,77.1465,PM10,16,443,176
India,Gujarat,Vatva,"Phase-4 GIDC, Vatva - GPCB",14-03-2025 10:00,22.969611,72.6435,SO2,17,24,20
India,Gujarat,Vatva,"Phase-4 GIDC, Vatva - GPCB",14-03-2025 10:00,22.969611,72.6435,CO,17,39,21
India,Gujarat,Vatva,"Phase-4 GIDC, Vatva - GPCB",14-03-2025 10:00,22.969611,72.6435,OZONE,1,2,1
India,Haryana,Faridabad,"New Industrial Town, Faridabad - HSPCB",14-03-2025 10:00,28.39072,77.30059,PM10,58,155,117
India,Haryana,Faridabad,"New Industrial Town, Faridabad - HSPCB",14-03-2025 10:00,28.39072,77.30059,OZONE,29,350,175
India,Haryana,Faridabad,"Sector 11, Faridabad - HSPCB",14-03-2025 10:00,28.376058,77.315741,NO2,29,33,31
India,Haryana,Faridabad,"Sector 11, Faridabad - HSPCB",14-03-2025 10:00,28.376058,77.315741,NH3,6,6,6
India,Haryana,Panchgaon,"Amity University, Panchgaon - IITM",14-03-2025 10:00,28.3153,76.9143,OZONE,11,115,25
India,Himachal Pradesh,Baddi,"HIMUDA Complex Phase-1, Baddi - HPPCB",14-03-2025 10:00,30.943887,76.801991,CO,38,60,42
India,Gujarat,Vapi,"Phase-1 GIDC, Vapi - GPCB",14-03-2025 10:00,20.362421,72.918013,OZONE,NA,NA,NA
India,Gujarat,Vatva,"Phase-4 GIDC, Vatva - GPCB",14-03-2025 10:00,22.969611,72.6435,NH3,2,4,3
India,Jharkhand,Dhanbad,"Sardar Patel Nagar, Dhanbad - JSPCB",14-03-2025 10:00,23.80569,86.44268,NO2,123,127,125
India,Jammu_and_Kashmir,Srinagar,"Rajbagh, Srinagar - JKSPCB",14-03-2025 10:00,34.066206,74.81982,CO,14,21,18
India,Haryana,Panchgaon,"Amity University, Panchgaon - IITM",14-03-2025 10:00,28.3153,76.9143,PM10,34,124,65
India,Gujarat,Gandhinagar,"Sector-10, Gandhinagar - GPCB",14-03-2025 10:00,23.221714,72.654328,OZONE,22,23,22
India,Karnataka,Bengaluru,"Kasturi Nagar, Bengaluru - KSPCB",14-03-2025 10:00,13.003872,77.664217,CO,17,54,27
India,Karnataka,Bengaluru,"Peenya, Bengaluru - CPCB",14-03-2025 10:00,13.0270199,77.494094,PM2.5,54,79,64
India,Karnataka,Bengaluru,"Peenya, Bengaluru - CPCB",14-03-2025 10:00,13.0270199,77.494094,CO,16,67,41
India,Karnataka,Bengaluru,"RVCE-Mailasandra, Bengaluru - KSPCB",14-03-2025 10:00,12.921418,77.502466,NH3,2,2,2
India,Karnataka,Bengaluru,"Sanegurava Halli, Bengaluru - KSPCB",14-03-2025 10:00,12.990328,77.5431385,PM10,38,39,39
India,Karnataka,Bengaluru,"Jigani, Bengaluru - KSPCB",14-03-2025 10:00,12.7816279,77.6299145,OZONE,23,24,23
India,Karnataka,Bengaluru,"Kasturi Nagar, Bengaluru - KSPCB",14-03-2025 10:00,13.003872,77.664217,PM2.5,38,39,38
India,Karnataka,Bengaluru,"Kasturi Nagar, Bengaluru - KSPCB",14-03-2025 10:00,13.003872,77.664217,PM10,82,500,143
India,Karnataka,Bengaluru,"Bapuji Nagar, Bengaluru - KSPCB",14-03-2025 10:00,12.951913,77.539784,NO2,11,12,12
India,Karnataka,Bengaluru,"City Railway Station, Bengaluru - KSPCB",14-03-2025 10:00,12.9756843,77.5660749,NO2,32,38,35
India,Karnataka,Bengaluru,"Hombegowda Nagar, Bengaluru - KSPCB",14-03-2025 10:00,12.938539,77.5901,PM10,16,69,35
India,Karnataka,Bengaluru,"Hombegowda Nagar, Bengaluru - KSPCB",14-03-2025 10:00,12.938539,77.5901,NO2,15,89,29
India,Karnataka,Belgaum,"Ramteerth Nagar, Belgaum - KSPCB",14-03-2025 10:00,15.888653,74.541751,SO2,14,15,15
India,Karnataka,Belgaum,"Ramteerth Nagar, Belgaum - KSPCB",14-03-2025 10:00,15.888653,74.541751,OZONE,19,20,19
India,Karnataka,Bengaluru,"Jayanagar 5th Block, Bengaluru - KSPCB",14-03-2025 10:00,12.920984,77.584908,PM2.5,23,57,34
India,Jharkhand,Dhanbad,"Sardar Patel Nagar, Dhanbad - JSPCB",14-03-2025 10:00,23.80569,86.44268,OZONE,15,302,91
India,Karnataka,Bengaluru,"Shivapura_Peenya, Bengaluru - KSPCB",14-03-2025 10:00,13.0246342,77.5080115,PM10,NA,NA,NA
India,Karnataka,Bengaluru,"Jigani, Bengaluru - KSPCB",14-03-2025 10:00,12.7816279,77.6299145,NH3,7,7,7
India,Karnataka,Kalaburagi,"Lal Bahadur Shastri Nagar, Kalaburagi - KSPCB",14-03-2025 10:00,17.321993,76.822628,OZONE,27,59,38
India,Karnataka,Kalaburagi,"Mahatma Basaveswar Colony, Kalaburgi - KSPCB",14-03-2025 10:00,17.336318,76.847397,NO2,13,13,13
India,Karnataka,Kalaburagi,"Mahatma Basaveswar Colony, Kalaburgi - KSPCB",14-03-2025 10:00,17.336318,76.847397,CO,38,80,64
India,Karnataka,Karwar,"KHB Colony, Karwar - KSPCB",14-03-2025 10:00,14.816666,74.141003,PM2.5,NA,NA,NA
India,Karnataka,Dharwad,"Kalabhavan, Dharwad - KSPCB",14-03-2025 10:00,15.459706,75.008381,PM2.5,43,76,53
India,Karnataka,Hassan,"B.Katihalli, Hassan - KSPCB",14-03-2025 10:00,13.008556,76.125258,NH3,1,38,4
India,Karnataka,Hassan,"B.Katihalli, Hassan - KSPCB",14-03-2025 10:00,13.008556,76.125258,OZONE,1,2,2
India,Karnataka,Haveri,"Ashwini Nagar, Haveri - KSPCB",14-03-2025 10:00,14.7918,75.3896,SO2,50,55,52
India,Karnataka,Bengaluru,"Shivapura_Peenya, Bengaluru - KSPCB",14-03-2025 10:00,13.0246342,77.5080115,NO2,11,12,11
India,Karnataka,Bengaluru,"Silk Board, Bengaluru - KSPCB",14-03-2025 10:00,12.917348,77.622813,PM2.5,11,72,32
India,Karnataka,Bidar,"Naubad, Bidar - KSPCB",14-03-2025 10:00,17.930306,77.482194,OZONE,18,45,31
India,Karnataka,Hubballi,"Lingaraj Nagar, Hubballi - KSPCB",14-03-2025 10:00,15.3714823,75.1160168,NO2,7,13,11
India,Karnataka,Kolar,"Tamaka Ind. Area, Kolar - KSPCB",14-03-2025 10:00,13.1276288,78.1570122,PM10,NA,NA,NA
India,Karnataka,Koppal,"Diwator Nagar, Koppal - KSPCB",14-03-2025 10:00,15.34763,76.181767,PM2.5,8,74,40
India,Karnataka,Kolar,"Tamaka Ind. Area, Kolar - KSPCB",14-03-2025 10:00,13.1276288,78.1570122,NH3,NA,NA,NA
India,Karnataka,Chamarajanagar,"Urban, Chamarajanagar - KSPCB",14-03-2025 10:00,11.55358,76.55521,OZONE,NA,NA,NA
India,Karnataka,Madikeri,"Stuart Hill, Madikeri - KSPCB",14-03-2025 10:00,12.415911,75.73505,NO2,2,10,8
India,Karnataka,Madikeri,"Stuart Hill, Madikeri - KSPCB",14-03-2025 10:00,12.415911,75.73505,OZONE,3,8,4
India,Karnataka,Mangalore,"Kadri, Mangalore - KSPCB",14-03-2025 10:00,12.88925,74.853,PM2.5,24,50,36
India,Karnataka,Mangalore,"Kadri, Mangalore - KSPCB",14-03-2025 10:00,12.88925,74.853,PM10,28,59,43
India,Karnataka,Mangalore,"Kadri, Mangalore - KSPCB",14-03-2025 10:00,12.88925,74.853,NH3,2,8,2
India,Karnataka,Mangalore,"Kadri, Mangalore - KSPCB",14-03-2025 10:00,12.88925,74.853,SO2,8,16,11
India,Karnataka,Raichur,"Haji Colony, Raichur - KSPCB",14-03-2025 10:00,16.208139,77.348417,NH3,NA,NA,NA
India,Karnataka,Ramanagara,"Vijay Nagar, Ramanagara - KSPCB",14-03-2025 10:00,12.733409,77.298051,PM10,30,72,43
India,Karnataka,Ramanagara,"Vijay Nagar, Ramanagara - KSPCB",14-03-2025 10:00,12.733409,77.298051,NO2,4,10,7
India,Karnataka,Ramanagara,"Vijay Nagar, Ramanagara - KSPCB",14-03-2025 10:00,12.733409,77.298051,OZONE,2,120,8
India,Karnataka,Shivamogga,"Vinoba Nagara, Shivamogga - KSPCB",14-03-2025 10:00,13.94,75.555917,NO2,17,25,23
India,Karnataka,Tumakuru,"Thimmalapura, Tumakuru - KSPCB",14-03-2025 10:00,13.377516,77.099072,PM10,94,312,149
India,Kerala,Kollam,"Polayathode, Kollam - Kerala PCB",14-03-2025 10:00,8.8787,76.6073,NO2,9,10,9
India,Kerala,Kollam,"Polayathode, Kollam - Kerala PCB",14-03-2025 10:00,8.8787,76.6073,SO2,1,3,2
India,Kerala,Thiruvananthapuram,"Kariavattom, Thiruvananthapuram - Kerala PCB",14-03-2025 10:00,8.5637,76.8865,PM2.5,41,57,51
India,Kerala,Thiruvananthapuram,"Kariavattom, Thiruvananthapuram - Kerala PCB",14-03-2025 10:00,8.5637,76.8865,PM10,61,76,71
India,Kerala,Thiruvananthapuram,"Plammoodu, Thiruvananthapuram - Kerala PCB",14-03-2025 10:00,8.5149093,76.9435879,PM10,24,97,45
India,Kerala,Thiruvananthapuram,"Plammoodu, Thiruvananthapuram - Kerala PCB",14-03-2025 10:00,8.5149093,76.9435879,NO2,6,16,11
India,Kerala,Thiruvananthapuram,"Plammoodu, Thiruvananthapuram - Kerala PCB",14-03-2025 10:00,8.5149093,76.9435879,NH3,2,3,2
India,Kerala,Thiruvananthapuram,"Plammoodu, Thiruvananthapuram - Kerala PCB",14-03-2025 10:00,8.5149093,76.9435879,SO2,5,19,11
India,Kerala,Kannur,"Thavakkara, Kannur - Kerala PCB",14-03-2025 10:00,11.875,75.3732,PM2.5,42,48,45
India,Kerala,Kannur,"Thavakkara, Kannur - Kerala PCB",14-03-2025 10:00,11.875,75.3732,NO2,15,18,16
India,Kerala,Kannur,"Thavakkara, Kannur - Kerala PCB",14-03-2025 10:00,11.875,75.3732,SO2,4,6,4
India,Kerala,Kollam,"Polayathode, Kollam - Kerala PCB",14-03-2025 10:00,8.8787,76.6073,PM2.5,49,62,53
India,Karnataka,Yadgir,"Collector Office, Yadgir - KSPCB",14-03-2025 10:00,16.7602,77.1428,NO2,22,44,30
India,Karnataka,Yadgir,"Collector Office, Yadgir - KSPCB",14-03-2025 10:00,16.7602,77.1428,OZONE,18,19,19
India,Kerala,Thiruvananthapuram,"Plammoodu, Thiruvananthapuram - Kerala PCB",14-03-2025 10:00,8.5149093,76.9435879,OZONE,11,29,19
India,Kerala,Thrissur,"Corporation Ground, Thrissur - Kerala PCB",14-03-2025 10:00,10.5324,76.2159,CO,17,20,18
India,Madhya Pradesh,Bhopal,"Idgah Hills, Bhopal - MPPCB",14-03-2025 10:00,23.264759,77.381568,OZONE,37,86,75
India,Madhya Pradesh,Bhopal,"T T Nagar, Bhopal - MPPCB",14-03-2025 10:00,23.233584,77.400574,PM2.5,13,47,27
India,Karnataka,Udupi,"Brahmagiri, Udupi - KSPCB",14-03-2025 10:00,13.34194444,74.74694444,NO2,NA,NA,NA
India,Madhya Pradesh,Indore,"Vijay Nagar Scheme-78, Indore - Glenmark",14-03-2025 10:00,22.76726,75.8871,SO2,27,30,28
India,Madhya Pradesh,Jabalpur,"Govindh Bhavan Colony, Jabalpur - JMC",14-03-2025 10:00,23.163174,79.973061,NO2,35,66,48
India,Madhya Pradesh,Jabalpur,"Govindh Bhavan Colony, Jabalpur - JMC",14-03-2025 10:00,23.163174,79.973061,NH3,3,3,3
India,Madhya Pradesh,Bhopal,"T T Nagar, Bhopal - MPPCB",14-03-2025 10:00,23.233584,77.400574,PM10,52,116,82
India,Madhya Pradesh,Damoh,"Shrivastav Colony, Damoh - MPPCB",14-03-2025 10:00,23.81748678,79.446246,PM10,25,134,53
India,Madhya Pradesh,Damoh,"Shrivastav Colony, Damoh - MPPCB",14-03-2025 10:00,23.81748678,79.446246,CO,18,25,22
India,Madhya Pradesh,Dewas,"Bhopal Chauraha, Dewas - MPPCB",14-03-2025 10:00,22.9682591,76.064118,NH3,4,9,6
India,Madhya Pradesh,Gwalior,"City Center, Gwalior - MPPCB",14-03-2025 10:00,26.203442,78.193251,PM10,43,252,111
India,Madhya Pradesh,Jabalpur,"Gupteshwar, Jabalpur - JMC",14-03-2025 10:00,23.142888,79.916147,PM2.5,NA,NA,NA
India,Madhya Pradesh,Jabalpur,"Gupteshwar, Jabalpur - JMC",14-03-2025 10:00,23.142888,79.916147,CO,30,114,82
India,Madhya Pradesh,Jabalpur,"Marhatal, Jabalpur - MPPCB",14-03-2025 10:00,23.168606,79.932247,NH3,2,4,3
India,Madhya Pradesh,Jabalpur,"Marhatal, Jabalpur - MPPCB",14-03-2025 10:00,23.168606,79.932247,SO2,9,31,15
India,Madhya Pradesh,Jabalpur,"Govindh Bhavan Colony, Jabalpur - JMC",14-03-2025 10:00,23.163174,79.973061,OZONE,16,106,32
India,Madhya Pradesh,Gwalior,"Deen Dayal Nagar, Gwalior - MPPCB",14-03-2025 10:00,26.259242,78.216432,NH3,9,19,12
India,Madhya Pradesh,Indore,"Residency Area, Indore - IMC",14-03-2025 10:00,22.7084,75.8815,PM2.5,31,93,61
India,Madhya Pradesh,Indore,"Chhoti Gwaltoli, Indore - MPPCB",14-03-2025 10:00,22.431,75.5213,SO2,7,48,20
India,Madhya Pradesh,Katni,"Gole Bazar, Katni - MPPCB",14-03-2025 10:00,23.50016,80.23284,NO2,10,114,67
India,Madhya Pradesh,Katni,"Gole Bazar, Katni - MPPCB",14-03-2025 10:00,23.50016,80.23284,SO2,14,81,35
India,Madhya Pradesh,Katni,"Gole Bazar, Katni - MPPCB",14-03-2025 10:00,23.50016,80.23284,OZONE,6,91,17
India,Madhya Pradesh,Maihar,"Sahilara, Maihar - KJS Cements",14-03-2025 10:00,24.2613009,80.7231783,NO2,41,63,53
India,Madhya Pradesh,Maihar,"Sahilara, Maihar - KJS Cements",14-03-2025 10:00,24.2613009,80.7231783,SO2,7,8,8
India,Madhya Pradesh,Maihar,"Sahilara, Maihar - KJS Cements",14-03-2025 10:00,24.2613009,80.7231783,CO,2,6,5
India,Madhya Pradesh,Mandideep,"Sector-D Industrial Area, Mandideep - MPPCB",14-03-2025 10:00,23.10844,77.511428,SO2,3,56,17
India,Madhya Pradesh,Satna,"Bandhavgar Colony, Satna - Birla Cement",14-03-2025 10:00,24.58434363,80.8549414,SO2,22,25,24
India,Madhya Pradesh,Singrauli,"Suryakiran Bhawan NCL, Singrauli - MPPCB",14-03-2025 10:00,24.10897,82.64558,PM2.5,42,344,184
India,Madhya Pradesh,Singrauli,"Suryakiran Bhawan NCL, Singrauli - MPPCB",14-03-2025 10:00,24.10897,82.64558,NH3,1,5,2
India,Madhya Pradesh,Singrauli,"Suryakiran Bhawan NCL, Singrauli - MPPCB",14-03-2025 10:00,24.10897,82.64558,CO,10,118,77
India,Madhya Pradesh,Ujjain,"Mahakaleshwar Temple, Ujjain - MPPCB",14-03-2025 10:00,23.182719,75.768218,SO2,NA,NA,NA
India,Madhya Pradesh,Ujjain,"Mahakaleshwar Temple, Ujjain - MPPCB",14-03-2025 10:00,23.182719,75.768218,OZONE,46,63,46
India,Maharashtra,Badlapur,"Katrap, Badlapur - MPCB",14-03-2025 10:00,19.16485,73.23409,NO2,42,145,89
India,Maharashtra,Badlapur,"Katrap, Badlapur - MPCB",14-03-2025 10:00,19.16485,73.23409,CO,20,39,29
India,Maharashtra,Belapur,"CBD Belapur, Belapur - MPCB",14-03-2025 10:00,19.0243902,73.0406721,PM2.5,57,216,106
India,Madhya Pradesh,Jabalpur,"Suhagi, Jabalpur - JMC",14-03-2025 10:00,23.218135,79.95777,PM2.5,16,424,143
India,Madhya Pradesh,Jabalpur,"Suhagi, Jabalpur - JMC",14-03-2025 10:00,23.218135,79.95777,NH3,2,3,2
India,Madhya Pradesh,Jabalpur,"Suhagi, Jabalpur - JMC",14-03-2025 10:00,23.218135,79.95777,SO2,12,51,18
India,Madhya Pradesh,Jabalpur,"Suhagi, Jabalpur - JMC",14-03-2025 10:00,23.218135,79.95777,CO,16,133,90
India,Maharashtra,Aurangabad,"MIDC Chilkalthana, Aurangabad - MPCB",14-03-2025 10:00,19.87562,75.38731,SO2,11,28,18
India,Maharashtra,Aurangabad,"Rachnakar Colony, Aurangabad - MPCB",14-03-2025 10:00,19.863756,75.321188,PM2.5,17,211,91
India,Madhya Pradesh,Ratlam,"Shasthri Nagar, Ratlam - IPCA Lab",14-03-2025 10:00,23.331731,75.045981,SO2,16,22,17
India,Madhya Pradesh,Sagar,"Civil Lines, Sagar - MPPCB",14-03-2025 10:00,23.838586,78.759431,SO2,7,51,13
India,Maharashtra,Bhiwandi,"Gokul Nagar, Bhiwandi - MPCB",14-03-2025 10:00,19.309073,73.057223,PM2.5,58,171,94
India,Madhya Pradesh,Jabalpur,"Marhatal, Jabalpur - MPPCB",14-03-2025 10:00,23.168606,79.932247,OZONE,10,103,32
India,Maharashtra,Akola,"Ramdaspeth, Akola - MPCB",14-03-2025 10:00,20.719516,77.000253,CO,36,61,50
India,Maharashtra,Kolhapur,"Sinchan Bhavan, Kolhapur - MPCB",14-03-2025 10:00,16.7143745,74.2426398,NO2,6,37,16
India,Maharashtra,Latur,"Sawe Wadi, Latur - MPCB",14-03-2025 10:00,18.39963,76.57452,SO2,8,26,14
India,Maharashtra,Latur,"Sawe Wadi, Latur - MPCB",14-03-2025 10:00,18.39963,76.57452,CO,2,128,31
India,Maharashtra,Latur,"Sawe Wadi, Latur - MPCB",14-03-2025 10:00,18.39963,76.57452,OZONE,4,104,48
India,Maharashtra,Malegaon,"Mahesh Nagar, Malegaon - MPCB",14-03-2025 10:00,20.555712,74.529236,PM10,51,409,137
India,Maharashtra,Dhule,"Deopur, Dhule - MPCB",14-03-2025 10:00,20.918946,74.776388,NO2,35,43,39
India,Maharashtra,Dhule,"Deopur, Dhule - MPCB",14-03-2025 10:00,20.918946,74.776388,SO2,6,28,15
India,Maharashtra,Dhule,"Deopur, Dhule - MPCB",14-03-2025 10:00,20.918946,74.776388,CO,2,62,36
India,Maharashtra,Jalgaon,"Prabhat Colony, Jalgaon - MPCB",14-03-2025 10:00,21.001264,75.565602,PM10,105,409,176
India,Maharashtra,Kalyan,"Khadakpada, Kalyan - MPCB",14-03-2025 10:00,19.25292,73.142019,CO,8,14,11
India,Maharashtra,Kalyan,"Pimpleshwar Mandir, Kalyan - MPCB",14-03-2025 10:00,19.192056,72.9585188,PM10,72,141,100
India,Maharashtra,Kalyan,"Pimpleshwar Mandir, Kalyan - MPCB",14-03-2025 10:00,19.192056,72.9585188,NO2,8,29,15
India,Maharashtra,Kolhapur,"Shivaji University, Kolhapur - MPCB",14-03-2025 10:00,16.6870449,74.2505872,PM10,33,93,64
India,Maharashtra,Kolhapur,"Shivaji University, Kolhapur - MPCB",14-03-2025 10:00,16.6870449,74.2505872,NO2,3,11,5
India,Maharashtra,Chandrapur,"MIDC Khutala, Chandrapur - MPCB",14-03-2025 10:00,19.9775302,79.2337086,CO,5,30,15
India,Maharashtra,Jalna,"Old MIDC, Jalna - MPCB",14-03-2025 10:00,19.854616,75.905894,PM2.5,62,318,152
India,Maharashtra,Jalna,"Old MIDC, Jalna - MPCB",14-03-2025 10:00,19.854616,75.905894,NO2,40,51,44
India,Maharashtra,Boisar,"Khaira, Boisar - MPCB",14-03-2025 10:00,19.786089,72.757971,PM10,40,95,67
India,Maharashtra,Mumbai,"Chakala-Andheri East, Mumbai - IITM",14-03-2025 10:00,19.11074,72.86084,NH3,4,5,1
India,Maharashtra,Mumbai,"Chakala-Andheri East, Mumbai - IITM",14-03-2025 10:00,19.11074,72.86084,OZONE,4,232,29
India,Maharashtra,Mumbai,"Chembur, Mumbai - MPCB",14-03-2025 10:00,19.0364585,72.8954371,NO2,31,115,51
India,Maharashtra,Mumbai,"Chhatrapati Shivaji Intl. Airport (T2), Mumbai - MPCB",14-03-2025 10:00,19.10078,72.87462,PM2.5,48,77,59
India,Maharashtra,Mumbai,"Mindspace-Malad West, Mumbai - MPCB",14-03-2025 10:00,19.1878657,72.8304069,PM10,73,127,94
India,Maharashtra,Mumbai,"Mindspace-Malad West, Mumbai - MPCB",14-03-2025 10:00,19.1878657,72.8304069,NO2,13,77,42
India,Maharashtra,Mumbai,"Chhatrapati Shivaji Intl. Airport (T2), Mumbai - MPCB",14-03-2025 10:00,19.10078,72.87462,NO2,29,39,33
India,Maharashtra,Mumbai,"Kherwadi_Bandra East, Mumbai - MPCB",14-03-2025 10:00,19.0632143,72.8456324,PM10,63,153,92
India,Maharashtra,Mumbai,"Kherwadi_Bandra East, Mumbai - MPCB",14-03-2025 10:00,19.0632143,72.8456324,CO,12,32,23
India,Maharashtra,Mumbai,"Kandivali East, Mumbai - MPCB",14-03-2025 10:00,19.2058,72.8682,PM10,103,112,108
India,Maharashtra,Mumbai,"Kandivali East, Mumbai - MPCB",14-03-2025 10:00,19.2058,72.8682,CO,11,15,15
India,Maharashtra,Mumbai,"Malad West, Mumbai - IITM",14-03-2025 10:00,19.19709,72.82204,OZONE,5,92,14
India,Maharashtra,Mumbai,"Deonar, Mumbai - IITM",14-03-2025 10:00,19.04946,72.923,PM2.5,29,330,193
India,Maharashtra,Mumbai,"Sewri, Mumbai - BMC",14-03-2025 10:00,19.000084,72.85673,OZONE,5,33,8
India,Maharashtra,Mumbai,"Shivaji Nagar, Mumbai - BMC",14-03-2025 10:00,19.060498,72.923356,PM10,57,166,112
India,Maharashtra,Mumbai,"Shivaji Nagar, Mumbai - BMC",14-03-2025 10:00,19.060498,72.923356,CO,16,60,45
India,Maharashtra,Mumbai,"Mulund West, Mumbai - MPCB",14-03-2025 10:00,19.175,72.9419,NH3,3,4,4
India,Maharashtra,Mumbai,"Mulund West, Mumbai - MPCB",14-03-2025 10:00,19.175,72.9419,SO2,NA,NA,NA
India,Maharashtra,Mumbai,"Mindspace-Malad West, Mumbai - MPCB",14-03-2025 10:00,19.1878657,72.8304069,CO,17,72,44
India,Maharashtra,Mumbai,"Navy Nagar-Colaba, Mumbai - IITM",14-03-2025 10:00,18.897756,72.81332,PM10,71,145,120
India,Maharashtra,Mumbai,"Navy Nagar-Colaba, Mumbai - IITM",14-03-2025 10:00,18.897756,72.81332,OZONE,17,85,25
India,Maharashtra,Mumbai,"Navy Nagar-Colaba, Mumbai - IITM",14-03-2025 10:00,18.897756,72.81332,NH3,5,6,5
India,Maharashtra,Mumbai,"Sewri, Mumbai - BMC",14-03-2025 10:00,19.000084,72.85673,PM2.5,86,184,125
India,Maharashtra,Mumbai,"Powai, Mumbai - MPCB",14-03-2025 10:00,19.1375,72.915056,PM2.5,35,63,47
India,Maharashtra,Mumbai,"Powai, Mumbai - MPCB",14-03-2025 10:00,19.1375,72.915056,NO2,14,183,35
India,Maharashtra,Nashik,"Hirawadi, Nashik - MPCB",14-03-2025 10:00,20.021503,73.813844,SO2,NA,NA,NA
India,Maharashtra,Nashik,"Pandav Nagari, Nashik - MPCB",14-03-2025 10:00,19.9591346,73.7788008,PM2.5,100,320,176
India,Maharashtra,Nashik,"Pandav Nagari, Nashik - MPCB",14-03-2025 10:00,19.9591346,73.7788008,PM10,81,174,128
India,Maharashtra,Nashik,"Pandav Nagari, Nashik - MPCB",14-03-2025 10:00,19.9591346,73.7788008,NH3,2,8,3
India,Maharashtra,Navi Mumbai,"Kopripada-Vashi, Navi Mumbai - MPCB",14-03-2025 10:00,19.090337,73.014232,NO2,39,139,81
India,Maharashtra,Mumbai,"Sion, Mumbai - MPCB",14-03-2025 10:00,19.047,72.8746,NO2,67,98,76
India,Maharashtra,Mumbai,"Sion, Mumbai - MPCB",14-03-2025 10:00,19.047,72.8746,OZONE,1,5,4
India,Maharashtra,Mumbai,"Vasai West, Mumbai - MPCB",14-03-2025 10:00,19.3832,72.8204,SO2,40,42,41
India,Maharashtra,Mumbai,"Vile Parle West, Mumbai - MPCB",14-03-2025 10:00,19.10861,72.83622,PM2.5,58,247,102
India,Maharashtra,Nagpur,"Ram Nagar, Nagpur - MPCB",14-03-2025 10:00,21.143383,79.048912,NO2,6,105,28
India,Maharashtra,Nagpur,"Ram Nagar, Nagpur - MPCB",14-03-2025 10:00,21.143383,79.048912,SO2,10,69,22
India,Maharashtra,Nagpur,"Ram Nagar, Nagpur - MPCB",14-03-2025 10:00,21.143383,79.048912,CO,12,126,81
India,Maharashtra,Nashik,"Gangapur Road, Nashik - MPCB",14-03-2025 10:00,20.0073285,73.7762427,PM10,93,233,138
India,Maharashtra,Mumbai,"Worli, Mumbai - MPCB",14-03-2025 10:00,18.9936162,72.8128113,PM10,90,159,108
India,Maharashtra,Mumbai,"Worli, Mumbai - MPCB",14-03-2025 10:00,18.9936162,72.8128113,NO2,11,12,12
India,Maharashtra,Nagpur,"Ambazari, Nagpur - MPCB",14-03-2025 10:00,21.121801,79.04952,PM10,74,150,117
India,Maharashtra,Nagpur,"Mahal, Nagpur - MPCB",14-03-2025 10:00,21.14472,79.107595,OZONE,20,64,33
India,Maharashtra,Nagpur,"Opp GPO Civil Lines, Nagpur - MPCB",14-03-2025 10:00,21.152875,79.0517531,NH3,3,9,5
India,Maharashtra,Nagpur,"Opp GPO Civil Lines, Nagpur - MPCB",14-03-2025 10:00,21.152875,79.0517531,OZONE,2,70,11
India,Maharashtra,Nagpur,"Ram Nagar, Nagpur - MPCB",14-03-2025 10:00,21.143383,79.048912,PM2.5,67,464,198
India,Maharashtra,Nashik,"Gangapur Road, Nashik - MPCB",14-03-2025 10:00,20.0073285,73.7762427,NH3,3,4,4
India,Maharashtra,Nashik,"Gangapur Road, Nashik - MPCB",14-03-2025 10:00,20.0073285,73.7762427,SO2,3,8,5
India,Maharashtra,Nashik,"Gangapur Road, Nashik - MPCB",14-03-2025 10:00,20.0073285,73.7762427,OZONE,32,89,38
India,Maharashtra,Nagpur,"Mahal, Nagpur - MPCB",14-03-2025 10:00,21.14472,79.107595,PM10,67,287,140
India,Maharashtra,Nagpur,"Mahal, Nagpur - MPCB",14-03-2025 10:00,21.14472,79.107595,SO2,2,121,77
India,Maharashtra,Nagpur,"Mahal, Nagpur - MPCB",14-03-2025 10:00,21.14472,79.107595,CO,14,182,106
India,Maharashtra,Navi Mumbai,"Sanpada, Navi Mumbai - MPCB",14-03-2025 10:00,19.0575752,73.0151367,PM10,51,402,166
India,Maharashtra,Navi Mumbai,"Sanpada, Navi Mumbai - MPCB",14-03-2025 10:00,19.0575752,73.0151367,NH3,10,13,12
India,Maharashtra,Navi Mumbai,"Sanpada, Navi Mumbai - MPCB",14-03-2025 10:00,19.0575752,73.0151367,SO2,1,27,10
India,Maharashtra,Navi Mumbai,"Sector-2E Kalamboli, Navi Mumbai - MPCB",14-03-2025 10:00,19.02579,73.10297,NO2,25,69,42
India,Maharashtra,Navi Mumbai,"Sector-2E Kalamboli, Navi Mumbai - MPCB",14-03-2025 10:00,19.02579,73.10297,NH3,6,13,9
India,Maharashtra,Navi Mumbai,"Sector-2E Kalamboli, Navi Mumbai - MPCB",14-03-2025 10:00,19.02579,73.10297,CO,6,22,16
India,Maharashtra,Navi Mumbai,"Tondare-Taloja, Navi Mumbai - MPCB",14-03-2025 10:00,19.063,73.1209,PM10,NA,NA,NA
India,Maharashtra,Navi Mumbai,"Tondare-Taloja, Navi Mumbai - MPCB",14-03-2025 10:00,19.063,73.1209,NO2,4,20,14
India,Maharashtra,Navi Mumbai,"Tondare-Taloja, Navi Mumbai - MPCB",14-03-2025 10:00,19.063,73.1209,SO2,1,2,1
India,Maharashtra,Navi Mumbai,"Tondare-Taloja, Navi Mumbai - MPCB",14-03-2025 10:00,19.063,73.1209,CO,8,30,13
India,Maharashtra,Navi Mumbai,"Tondare-Taloja, Navi Mumbai - MPCB",14-03-2025 10:00,19.063,73.1209,OZONE,8,136,12
India,Maharashtra,Pimpri-Chinchwad,"Park Street Wakad, Pimpri Chinchwad - MPCB",14-03-2025 10:00,18.59051,73.77946,PM2.5,67,123,86
India,Maharashtra,Pimpri-Chinchwad,"Park Street Wakad, Pimpri Chinchwad - MPCB",14-03-2025 10:00,18.59051,73.77946,CO,22,58,45
India,Maharashtra,Pimpri-Chinchwad,"Thergaon, Pimpri Chinchwad - MPCB",14-03-2025 10:00,18.616318,73.765797,OZONE,1,68,10
India,Maharashtra,Parbhani,"Masoom Colony, Parbhani - MPCB",14-03-2025 10:00,19.265594,76.761463,PM10,87,169,121
India,Maharashtra,Navi Mumbai,"Mahape, Navi Mumbai - MPCB",14-03-2025 10:00,19.1135051,73.008978,PM10,104,274,143
India,Maharashtra,Pune,"Bhosari, Pune - IITM",14-03-2025 10:00,18.640051,73.848956,PM10,16,168,129
India,Maharashtra,Pune,"Bhosari, Pune - IITM",14-03-2025 10:00,18.640051,73.848956,OZONE,3,302,25
India,Maharashtra,Solapur,"Ratandeep Housing Society, Solapur - MPCB",14-03-2025 10:00,17.65439,75.90649,SO2,7,22,12
India,Maharashtra,Solapur,"Ratandeep Housing Society, Solapur - MPCB",14-03-2025 10:00,17.65439,75.90649,CO,26,108,64
India,Maharashtra,Solapur,"Solapur, Solapur - MPCB",14-03-2025 10:00,17.6599188,75.9063906,PM10,118,140,123
India,Maharashtra,Solapur,"Solapur, Solapur - MPCB",14-03-2025 10:00,17.6599188,75.9063906,SO2,4,64,27
India,Maharashtra,Thane,"Kasarvadavali, Thane - MPCB",14-03-2025 10:00,19.26777,72.97182,CO,14,106,56
India,Maharashtra,Thane,"Kasarvadavali, Thane - MPCB",14-03-2025 10:00,19.26777,72.97182,OZONE,1,121,3
India,Maharashtra,Pune,"Transport Nagar-Nigdi, Pune - IITM",14-03-2025 10:00,18.664282,73.763966,PM10,90,158,125
India,Maharashtra,Pune,"Transport Nagar-Nigdi, Pune - IITM",14-03-2025 10:00,18.664282,73.763966,CO,62,102,76
India,Maharashtra,Sangli,"Vijay Nagar, Sangli - MPCB",14-03-2025 10:00,16.5038,74.3623,NO2,13,74,32
India,Maharashtra,Pune,"Bhumkar Nagar, Pune - IITM",14-03-2025 10:00,18.60577,73.749976,OZONE,9,254,35
India,Maharashtra,Pune,"Dhankawadi, Pune - IITM",14-03-2025 10:00,18.459883,73.852193,PM10,51,174,118
India,Maharashtra,Pune,"Dhankawadi, Pune - IITM",14-03-2025 10:00,18.459883,73.852193,NO2,27,35,30
India,Maharashtra,Pune,"Karve Road, Pune - MPCB",14-03-2025 10:00,18.5011743,73.8165527,PM10,NA,NA,NA
India,Maharashtra,Pune,"Katraj Dairy, Pune - MPCB",14-03-2025 10:00,18.45445,73.854155,PM2.5,30,68,50
India,Maharashtra,Sangli,"Vijay Nagar, Sangli - MPCB",14-03-2025 10:00,16.5038,74.3623,NH3,1,5,3
India,Maharashtra,Sangli,"Vijay Nagar, Sangli - MPCB",14-03-2025 10:00,16.5038,74.3623,OZONE,4,88,10
India,Maharashtra,Pune,"Katraj Dairy, Pune - MPCB",14-03-2025 10:00,18.45445,73.854155,SO2,4,15,10
India,Maharashtra,Pune,"Katraj Dairy, Pune - MPCB",14-03-2025 10:00,18.45445,73.854155,OZONE,27,79,40
India,Maharashtra,Pune,"Revenue Colony-Shivajinagar, Pune - IITM",14-03-2025 10:00,18.530085,73.849598,PM10,107,192,141
India,Maharashtra,Pune,"Revenue Colony-Shivajinagar, Pune - IITM",14-03-2025 10:00,18.530085,73.849598,CO,5,98,37
India,Maharashtra,Solapur,"Dnyaneshwar Nagar, Solapur - MPCB",14-03-2025 10:00,17.6336264,75.9132495,CO,17,100,38
India,Nagaland,Kohima,"PWD Juction, Kohima - NPCB",14-03-2025 10:00,25.6635413,94.0989878,SO2,56,59,58
India,Nagaland,Kohima,"PWD Juction, Kohima - NPCB",14-03-2025 10:00,25.6635413,94.0989878,OZONE,10,31,20
India,Odisha,Angul,"Hakimapada, Angul - OSPCB",14-03-2025 10:00,20.832874,85.104082,CO,38,105,72
India,Odisha,Balasore,"Kalidaspur, Balasore - OSPCB",14-03-2025 10:00,21.51161,86.89088,PM2.5,42,123,71
India,Odisha,Balasore,"Kalidaspur, Balasore - OSPCB",14-03-2025 10:00,21.51161,86.89088,PM10,53,136,87
India,Maharashtra,Thane,"Upvan Fort, Thane - MPCB",14-03-2025 10:00,19.222279,72.957979,OZONE,3,137,7
India,Maharashtra,Ulhasnagar,"Sidhi Vinayak Nagar, Ulhasnagar - MPCB",14-03-2025 10:00,19.235581,73.159121,PM2.5,61,303,126
India,Meghalaya,Shillong,"Lumpyngngad, Shillong - Meghalaya PCB",14-03-2025 10:00,25.5586,91.8985,SO2,5,7,6
India,Meghalaya,Shillong,"Lumpyngngad, Shillong - Meghalaya PCB",14-03-2025 10:00,25.5586,91.8985,CO,8,12,8
India,Manipur,Imphal,"DM College of Science, Imphal - Manipur PCB",14-03-2025 10:00,24.8207389,93.9423085,SO2,104,106,105
India,Maharashtra,Ulhasnagar,"Sidhi Vinayak Nagar, Ulhasnagar - MPCB",14-03-2025 10:00,19.235581,73.159121,NO2,37,53,45
India,Maharashtra,Ulhasnagar,"Sidhi Vinayak Nagar, Ulhasnagar - MPCB",14-03-2025 10:00,19.235581,73.159121,CO,14,64,48
India,Manipur,Imphal,"DM College of Science, Imphal - Manipur PCB",14-03-2025 10:00,24.8207389,93.9423085,NO2,7,8,8
India,Manipur,Imphal,"DM College of Science, Imphal - Manipur PCB",14-03-2025 10:00,24.8207389,93.9423085,CO,6,6,6
India,Meghalaya,Shillong,"JN Stadium, Shillong - Meghalaya PCB",14-03-2025 10:00,25.5803419,91.8942571,NH3,7,10,9
India,Odisha,Bhubaneswar,"Patia, Bhubaneswar - OSPCB",14-03-2025 10:00,20.34652,85.8163,NO2,8,25,16
India,Odisha,Bhubaneswar,"Patia, Bhubaneswar - OSPCB",14-03-2025 10:00,20.34652,85.8163,NH3,2,3,2
India,Odisha,Bhubaneswar,"Patia, Bhubaneswar - OSPCB",14-03-2025 10:00,20.34652,85.8163,OZONE,16,185,33
India,Odisha,Brajrajnagar,"GM Office, Brajrajnagar - OSPCB",14-03-2025 10:00,21.8004996,83.8396977,NH3,7,7,7
India,Odisha,Suakati,"OMC Colony, Suakati - OSPCB",14-03-2025 10:00,21.606865,85.510538,NH3,NA,NA,NA
India,Odisha,Tensa,"Barsua Iron Ore Mines, Tensa - OSPCB",14-03-2025 10:00,21.869985,85.167016,PM2.5,126,258,177
India,Odisha,Byasanagar,"Ferro Chrome Colony, Byasanagar - OSPCB",14-03-2025 10:00,20.94185,86.1151,PM2.5,28,277,110
India,Odisha,Cuttack,"CDA Area, Cuttack - OSPCB",14-03-2025 10:00,20.48891,85.84768,PM2.5,28,127,72
India,Odisha,Rourkela,"Fertilizer Township, Rourkela - OSPCB",14-03-2025 10:00,22.18972222,84.86277778,SO2,20,22,21
India,Odisha,Rourkela,"Fertilizer Township, Rourkela - OSPCB",14-03-2025 10:00,22.18972222,84.86277778,CO,1,50,14
India,Odisha,Nayagarh,"Dabuna, Nayagarh - OSPCB",14-03-2025 10:00,21.847279,85.416905,PM2.5,9,319,234
India,Odisha,Nayagarh,"Dabuna, Nayagarh - OSPCB",14-03-2025 10:00,21.847279,85.416905,SO2,8,28,12
India,Odisha,Rairangpur,"Divisional Forest Office, Rairangpur - OSPCB",14-03-2025 10:00,22.265816,86.174829,CO,18,62,57
India,Odisha,Rourkela,"Sector-2, Rourkela - OSPCB",14-03-2025 10:00,22.245,84.88111111,PM2.5,13,353,227
India,Odisha,Cuttack,"CDA Area, Cuttack - OSPCB",14-03-2025 10:00,20.48891,85.84768,NO2,10,31,18
India,Odisha,Rourkela,"Raghunathpali, Rourkela - OSPCB",14-03-2025 10:00,22.220833,84.809444,NH3,2,5,3
India,Odisha,Tensa,"Barsua Iron Ore Mines, Tensa - OSPCB",14-03-2025 10:00,21.869985,85.167016,NH3,NA,NA,NA
India,Punjab,Amritsar,"Golden Temple, Amritsar - PPCB",14-03-2025 10:00,31.62,74.876512,PM2.5,20,66,35
India,Punjab,Amritsar,"Golden Temple, Amritsar - PPCB",14-03-2025 10:00,31.62,74.876512,NH3,6,7,7
India,Punjab,Amritsar,"Golden Temple, Amritsar - PPCB",14-03-2025 10:00,31.62,74.876512,SO2,2,86,31
India,Punjab,Bathinda,"Hardev Nagar, Bathinda - PPCB",14-03-2025 10:00,30.233011,74.907758,PM10,17,55,32
India,Punjab,Bathinda,"Hardev Nagar, Bathinda - PPCB",14-03-2025 10:00,30.233011,74.907758,CO,15,54,41
India,Punjab,Jalandhar,"Civil Line, Jalandhar - PPCB",14-03-2025 10:00,31.321907,75.578914,CO,38,52,45
India,Punjab,Jalandhar,"Civil Line, Jalandhar - PPCB",14-03-2025 10:00,31.321907,75.578914,OZONE,23,59,29
India,Punjab,Khanna,"Kalal Majra, Khanna - PPCB",14-03-2025 10:00,30.736056,76.209694,NO2,27,31,28
India,Punjab,Khanna,"Kalal Majra, Khanna - PPCB",14-03-2025 10:00,30.736056,76.209694,CO,60,74,70
India,Punjab,Ludhiana,"Punjab Agricultural University, Ludhiana - PPCB",14-03-2025 10:00,30.9028,75.8086,SO2,7,28,16
India,Punjab,Ludhiana,"Punjab Agricultural University, Ludhiana - PPCB",14-03-2025 10:00,30.9028,75.8086,CO,18,61,36
India,Punjab,Mandi Gobindgarh,"RIMT University, Mandi Gobindgarh - PPCB",14-03-2025 10:00,30.649961,76.331442,CO,57,96,81
India,Punjab,Rupnagar,"Ratanpura, Rupnagar - Ambuja Cements",14-03-2025 10:00,31.0325454,76.5623046,SO2,3,8,6
India,Rajasthan,Ajmer,"Civil Lines,  Ajmer - RSPCB",14-03-2025 10:00,26.470859,74.646594,NO2,46,54,51
India,Punjab,Rupnagar,"Ratanpura, Rupnagar - Ambuja Cements",14-03-2025 10:00,31.0325454,76.5623046,PM10,22,138,75
India,Punjab,Jalandhar,"Civil Line, Jalandhar - PPCB",14-03-2025 10:00,31.321907,75.578914,PM2.5,27,54,42
India,Punjab,Jalandhar,"Civil Line, Jalandhar - PPCB",14-03-2025 10:00,31.321907,75.578914,PM10,40,130,66
India,Punjab,Patiala,"Model Town, Patiala - PPCB",14-03-2025 10:00,30.349388,76.366642,PM2.5,40,98,64
India,Rajasthan,Ajmer,"Civil Lines,  Ajmer - RSPCB",14-03-2025 10:00,26.470859,74.646594,SO2,6,10,8
India,Rajasthan,Ajmer,"Civil Lines,  Ajmer - RSPCB",14-03-2025 10:00,26.470859,74.646594,OZONE,31,72,41
India,Rajasthan,Alwar,"Moti Doongri, Alwar - RSPCB",14-03-2025 10:00,27.554793,76.611536,PM2.5,41,90,64
India,Rajasthan,Alwar,"Moti Doongri, Alwar - RSPCB",14-03-2025 10:00,27.554793,76.611536,CO,20,107,79
India,Rajasthan,Baran,"Bamboliya, Baran - RSPCB",14-03-2025 10:00,25.106006,76.469948,NH3,3,4,3
India,Rajasthan,Baran,"Bamboliya, Baran - RSPCB",14-03-2025 10:00,25.106006,76.469948,OZONE,22,116,38
India,Rajasthan,Bikaner,"MM Ground, Bikaner - RSPCB",14-03-2025 10:00,28.018792,73.292658,PM2.5,23,407,89
India,Rajasthan,Bikaner,"MM Ground, Bikaner - RSPCB",14-03-2025 10:00,28.018792,73.292658,NO2,11,139,33
India,Rajasthan,Bikaner,"MM Ground, Bikaner - RSPCB",14-03-2025 10:00,28.018792,73.292658,CO,36,162,88
India,Rajasthan,Bundi,"New Colony, Bundi - RSPCB",14-03-2025 10:00,25.435774,75.644272,PM10,65,287,130
India,Rajasthan,Bundi,"New Colony, Bundi - RSPCB",14-03-2025 10:00,25.435774,75.644272,NO2,6,94,24
India,Rajasthan,Chittorgarh,"Shastri Nagar, Chittorgarh - RSPCB",14-03-2025 10:00,24.892047,74.623527,OZONE,4,118,28
India,Rajasthan,Churu,"Subash Chowk, Churu - RSPCB",14-03-2025 10:00,28.296139,74.961696,PM10,52,112,74
India,Rajasthan,Churu,"Subash Chowk, Churu - RSPCB",14-03-2025 10:00,28.296139,74.961696,OZONE,39,139,59
India,Rajasthan,Dausa,"Khatikan Mohalla, Dausa - RSPCB",14-03-2025 10:00,26.895552,76.334753,NH3,8,20,10
India,Rajasthan,Bharatpur,"Krishna Nagar, Bharatpur - RSPCB",14-03-2025 10:00,27.215415,77.50873,PM10,57,112,87
India,Rajasthan,Bharatpur,"Krishna Nagar, Bharatpur - RSPCB",14-03-2025 10:00,27.215415,77.50873,OZONE,7,98,14
India,Rajasthan,Bhilwara,"Pratap Nagar, Bhilwara - RSPCB",14-03-2025 10:00,25.339605,74.618883,NO2,NA,NA,NA
India,Rajasthan,Bhilwara,"Pratap Nagar, Bhilwara - RSPCB",14-03-2025 10:00,25.339605,74.618883,NH3,NA,NA,NA
India,Rajasthan,Bhiwadi,"Vasundhara Nagar_UIT, Bhiwadi - RSPCB",14-03-2025 10:00,28.207266,76.829265,CO,6,66,50
India,Rajasthan,Barmer,"Railway Colony, Barmer - RSPCB",14-03-2025 10:00,25.747299,71.393989,PM10,59,141,104
India,Rajasthan,Dausa,"Khatikan Mohalla, Dausa - RSPCB",14-03-2025 10:00,26.895552,76.334753,SO2,1,6,3
India,Rajasthan,Barmer,"Railway Colony, Barmer - RSPCB",14-03-2025 10:00,25.747299,71.393989,NH3,5,9,7
India,Rajasthan,Dungarpur,"Bhoiwada, Dungarpur - RSPCB",14-03-2025 10:00,23.837789,73.714926,OZONE,27,84,37
India,Rajasthan,Hanumangarh,"Housing Board, Hanumangarh - RSPCB",14-03-2025 10:00,29.61075,74.283608,PM2.5,NA,NA,NA
India,Rajasthan,Hanumangarh,"Housing Board, Hanumangarh - RSPCB",14-03-2025 10:00,29.61075,74.283608,PM10,NA,NA,NA
India,Rajasthan,Hanumangarh,"Housing Board, Hanumangarh - RSPCB",14-03-2025 10:00,29.61075,74.283608,NH3,NA,NA,NA
India,Rajasthan,Hanumangarh,"Housing Board, Hanumangarh - RSPCB",14-03-2025 10:00,29.61075,74.283608,SO2,NA,NA,NA
India,Rajasthan,Hanumangarh,"Housing Board, Hanumangarh - RSPCB",14-03-2025 10:00,29.61075,74.283608,OZONE,11,39,26
India,Rajasthan,Jalore,"Mudtra Sili, Jalore - RSPCB",14-03-2025 10:00,25.344694,72.626208,SO2,4,11,7
India,Rajasthan,Jalore,"Mudtra Sili, Jalore - RSPCB",14-03-2025 10:00,25.344694,72.626208,CO,10,26,12
India,Rajasthan,Jhalawar,"Rajlaxmi Nagar, Jhalawar - RSPCB",14-03-2025 10:00,24.588397,76.172782,PM2.5,12,89,35
India,Rajasthan,Jhalawar,"Rajlaxmi Nagar, Jhalawar - RSPCB",14-03-2025 10:00,24.588397,76.172782,NH3,4,7,5
India,Rajasthan,Jaisalmer,"Sadar Bazar, Jaisalmer - RSPCB",14-03-2025 10:00,26.912329,70.909168,PM2.5,21,92,44
India,Rajasthan,Jaisalmer,"Sadar Bazar, Jaisalmer - RSPCB",14-03-2025 10:00,26.912329,70.909168,PM10,61,132,93
India,Rajasthan,Jaisalmer,"Sadar Bazar, Jaisalmer - RSPCB",14-03-2025 10:00,26.912329,70.909168,CO,16,50,30
India,Rajasthan,Jaipur,"Mansarovar Sector-12, Jaipur - RSPCB",14-03-2025 10:00,26.843698,75.766894,PM10,47,191,86
India,Rajasthan,Jaipur,"Police Commissionerate, Jaipur - RSPCB",14-03-2025 10:00,26.9164092,75.7994901,SO2,22,24,23
India,Rajasthan,Jaipur,"Sector-2 Murlipura, Jaipur - RSPCB",14-03-2025 10:00,26.960669,75.771817,PM2.5,37,193,77
India,Rajasthan,Jhalawar,"Rajlaxmi Nagar, Jhalawar - RSPCB",14-03-2025 10:00,24.588397,76.172782,OZONE,10,91,42
India,Rajasthan,Jaipur,"Shastri Nagar, Jaipur - RSPCB",14-03-2025 10:00,26.9502929,75.730943,NH3,4,11,6
India,Rajasthan,Dholpur,"Raja Ganj, Dholpur - RSPCB",14-03-2025 10:00,26.699557,77.898881,OZONE,16,93,29
India,Rajasthan,Sawai Madhopur,"Sahu Nagar, Sawai Madhopur - RSPCB",14-03-2025 10:00,26.031443,76.359327,PM2.5,21,217,56
India,Rajasthan,Sikar,"Radhakishan Pura, Sikar - RSPCB",14-03-2025 10:00,27.608912,75.153302,PM2.5,42,137,80
India,Rajasthan,Sikar,"Radhakishan Pura, Sikar - RSPCB",14-03-2025 10:00,27.608912,75.153302,PM10,63,139,95
India,Rajasthan,Sikar,"Radhakishan Pura, Sikar - RSPCB",14-03-2025 10:00,27.608912,75.153302,NO2,10,44,18
India,Rajasthan,Sirohi,"Vedhaynath Colony, Sirohi - RSPCB",14-03-2025 10:00,24.885261,72.857549,PM10,30,100,66
India,Rajasthan,Sirohi,"Vedhaynath Colony, Sirohi - RSPCB",14-03-2025 10:00,24.885261,72.857549,NO2,5,22,11
India,Rajasthan,Jodhpur,"Digari Kalan, Jodhpur - RSPCB",14-03-2025 10:00,26.29581,73.082283,CO,17,76,28
India,Rajasthan,Jodhpur,"Jhalamand, Jodhpur - RSPCB",14-03-2025 10:00,26.215415,73.070156,PM10,62,413,134
India,Rajasthan,Jodhpur,"Jhalamand, Jodhpur - RSPCB",14-03-2025 10:00,26.215415,73.070156,NH3,9,20,14
India,Rajasthan,Jodhpur,"Jhalamand, Jodhpur - RSPCB",14-03-2025 10:00,26.215415,73.070156,SO2,4,10,6
India,Rajasthan,Jodhpur,"Mandor, Jodhpur - RSPCB",14-03-2025 10:00,26.358805,73.047444,PM10,65,147,93
India,Rajasthan,Jodhpur,"Mandor, Jodhpur - RSPCB",14-03-2025 10:00,26.358805,73.047444,NH3,4,9,6
India,Rajasthan,Jodhpur,"Mandor, Jodhpur - RSPCB",14-03-2025 10:00,26.358805,73.047444,SO2,2,75,9
India,Rajasthan,Sri Ganganagar,"Old City, Sri Ganganagar - RSPCB",14-03-2025 10:00,29.931624,73.864511,CO,2,102,8
India,Rajasthan,Tonk,"Shastri Nagar, Tonk - RSPCB",14-03-2025 10:00,26.159933,75.780517,NO2,11,84,22
India,Rajasthan,Tonk,"Shastri Nagar, Tonk - RSPCB",14-03-2025 10:00,26.159933,75.780517,CO,18,100,23
India,Rajasthan,Udaipur,"Ashok Nagar, Udaipur - RSPCB",14-03-2025 10:00,24.5886166,73.6321397,PM10,69,142,98
India,Rajasthan,Udaipur,"Ashok Nagar, Udaipur - RSPCB",14-03-2025 10:00,24.5886166,73.6321397,NO2,32,35,34
India,Rajasthan,Pali,"Indira Colony Vistar, Pali - RSPCB",14-03-2025 10:00,25.771061,73.340227,PM2.5,54,258,123
India,Rajasthan,Pali,"Indira Colony Vistar, Pali - RSPCB",14-03-2025 10:00,25.771061,73.340227,NO2,16,24,20
India,Rajasthan,Pratapgarh,"Pragati Nagar, Pratapgarh - RSPCB",14-03-2025 10:00,24.041198,74.780702,NH3,3,4,3
India,Rajasthan,Rajsamand,"Dhoinda, Rajsamand - RSPCB",14-03-2025 10:00,25.03636,73.883502,PM2.5,3,75,25
India,Rajasthan,Karauli,"Satyawati Vihar, Karauli - RSPCB",14-03-2025 10:00,26.506177,77.025989,PM10,38,384,84
India,Rajasthan,Kota,"Dhanmandi, Kota - RSPCB",14-03-2025 10:00,25.16409,75.858137,PM10,47,158,105
India,Rajasthan,Kota,"Dhanmandi, Kota - RSPCB",14-03-2025 10:00,25.16409,75.858137,NH3,4,7,5
India,Rajasthan,Kota,"Dhanmandi, Kota - RSPCB",14-03-2025 10:00,25.16409,75.858137,OZONE,4,72,41
India,Rajasthan,Kota,"Shrinath Puram, Kota - RSPCB",14-03-2025 10:00,25.14389,75.821256,NO2,20,54,28
India,Rajasthan,Nagaur,"Karni Colony, Nagaur - RSPCB",14-03-2025 10:00,27.213494,73.734444,PM2.5,32,130,62
India,Rajasthan,Nagaur,"Karni Colony, Nagaur - RSPCB",14-03-2025 10:00,27.213494,73.734444,NO2,9,25,15
India,Rajasthan,Nagaur,"Karni Colony, Nagaur - RSPCB",14-03-2025 10:00,27.213494,73.734444,CO,18,35,27
India,Rajasthan,Jodhpur,"Samrat Ashok Udhyan, Jodhpur - RSPCB",14-03-2025 10:00,26.253384,72.976571,PM2.5,22,368,84
India,Rajasthan,Jodhpur,"Samrat Ashok Udhyan, Jodhpur - RSPCB",14-03-2025 10:00,26.253384,72.976571,NO2,4,98,22
India,Rajasthan,Jodhpur,"Digari Kalan, Jodhpur - RSPCB",14-03-2025 10:00,26.29581,73.082283,PM10,56,405,112
India,Rajasthan,Jodhpur,"Digari Kalan, Jodhpur - RSPCB",14-03-2025 10:00,26.29581,73.082283,SO2,5,19,9
India,Rajasthan,Jodhpur,"Collectorate, Jodhpur - RSPCB",14-03-2025 10:00,26.268249,73.0193853,PM10,39,442,148
India,Sikkim,Gangtok,"Zero Point GICI, Gangtok - SSPCB",14-03-2025 10:00,27.33853,88.614099,PM2.5,NA,NA,NA
India,Sikkim,Gangtok,"Zero Point GICI, Gangtok - SSPCB",14-03-2025 10:00,27.33853,88.614099,PM10,NA,NA,NA
India,Sikkim,Gangtok,"Zero Point GICI, Gangtok - SSPCB",14-03-2025 10:00,27.33853,88.614099,OZONE,11,42,17
India,TamilNadu,Ariyalur,"Keelapalur, Ariyalur - TNPCB",14-03-2025 10:00,11.06825,79.07033,OZONE,4,13,4
India,TamilNadu,Chengalpattu,"Crescent University, Chengalpattu - TNPCB",14-03-2025 10:00,12.8777316,80.0834807,PM10,37,90,62
India,TamilNadu,Chengalpattu,"Crescent University, Chengalpattu - TNPCB",14-03-2025 10:00,12.8777316,80.0834807,NO2,13,14,14
India,TamilNadu,Chennai,"Manali Village, Chennai - TNPCB",14-03-2025 10:00,13.1662,80.2584,NH3,1,2,1
India,TamilNadu,Chennai,"Manali, Chennai - CPCB",14-03-2025 10:00,13.164544,80.26285,PM2.5,10,53,21
India,TamilNadu,Chennai,"Royapuram, Chennai - TNPCB",14-03-2025 10:00,13.1036,80.2909,PM2.5,4,36,15
India,TamilNadu,Chennai,"Royapuram, Chennai - TNPCB",14-03-2025 10:00,13.1036,80.2909,PM10,16,66,36
India,TamilNadu,Chennai,"Royapuram, Chennai - TNPCB",14-03-2025 10:00,13.1036,80.2909,CO,18,38,31
India,TamilNadu,Chennai,"Kodungaiyur, Chennai - TNPCB",14-03-2025 10:00,13.1278,80.2642,CO,6,36,20
India,TamilNadu,Chennai,"Kodungaiyur, Chennai - TNPCB",14-03-2025 10:00,13.1278,80.2642,OZONE,6,32,9
India,TamilNadu,Chengalpattu,"Crescent University, Chengalpattu - TNPCB",14-03-2025 10:00,12.8777316,80.0834807,CO,19,20,20
India,TamilNadu,Chennai,"Alandur Bus Depot, Chennai - CPCB",14-03-2025 10:00,12.9099161,80.1076538,SO2,15,16,15
India,TamilNadu,Chennai,"Velachery Res. Area, Chennai - CPCB",14-03-2025 10:00,13.0052189,80.2398125,NH3,4,5,4
India,TamilNadu,Chennai,"Perungudi, Chennai - TNPCB",14-03-2025 10:00,12.9533,80.2357,OZONE,10,18,17
India,TamilNadu,Chennai,"Manali, Chennai - CPCB",14-03-2025 10:00,13.164544,80.26285,CO,53,101,78
India,TamilNadu,Ooty,"Bombay Castel, Ooty - TNPCB",14-03-2025 10:00,11.4068288,76.7138973,NH3,14,17,17
India,TamilNadu,Ooty,"Bombay Castel, Ooty - TNPCB",14-03-2025 10:00,11.4068288,76.7138973,SO2,22,23,23
India,TamilNadu,Ooty,"Bombay Castel, Ooty - TNPCB",14-03-2025 10:00,11.4068288,76.7138973,CO,25,28,26
India,TamilNadu,Palkalaiperur,"Bharathidasan University, Palkalaiperur - TNPCB",14-03-2025 10:00,10.681158,78.741746,PM2.5,11,29,17
India,TamilNadu,Palkalaiperur,"Bharathidasan University, Palkalaiperur - TNPCB",14-03-2025 10:00,10.681158,78.741746,NO2,10,10,10
India,TamilNadu,Cuddalore,"Kudikadu, Cuddalore - TNPCB",14-03-2025 10:00,11.6829898,79.7532099,PM2.5,18,119,49
India,TamilNadu,Dindigul,"Mendonsa Colony, Dindigul - TNPCB",14-03-2025 10:00,10.358535,77.984321,PM2.5,13,273,40
India,TamilNadu,Dindigul,"Mendonsa Colony, Dindigul - TNPCB",14-03-2025 10:00,10.358535,77.984321,NH3,1,1,1
India,TamilNadu,Dindigul,"Mendonsa Colony, Dindigul - TNPCB",14-03-2025 10:00,10.358535,77.984321,CO,NA,NA,NA
India,TamilNadu,Chennai,"Velachery Res. Area, Chennai - CPCB",14-03-2025 10:00,13.0052189,80.2398125,OZONE,6,11,7
India,TamilNadu,Coimbatore,"SIDCO Kurichi, Coimbatore - TNPCB",14-03-2025 10:00,10.942451,76.978996,PM10,NA,NA,NA
India,TamilNadu,Coimbatore,"SIDCO Kurichi, Coimbatore - TNPCB",14-03-2025 10:00,10.942451,76.978996,NO2,5,54,16
India,TamilNadu,Karur,"Kamadenu Nagar, Karur - TNPCB",14-03-2025 10:00,10.96782,78.080882,NH3,NA,NA,NA
India,TamilNadu,Madurai,"Uchapatti, Madurai - TNPCB",14-03-2025 10:00,9.865935,78.022669,PM2.5,22,76,41
India,TamilNadu,Kanchipuram,"Kilambi, Kanchipuram - TNPCB",14-03-2025 10:00,12.864618,79.659968,PM10,NA,NA,NA
India,TamilNadu,Kanchipuram,"Kilambi, Kanchipuram - TNPCB",14-03-2025 10:00,12.864618,79.659968,NO2,NA,NA,NA
India,TamilNadu,Perundurai,"SIPCOT Industrial Park, Perundurai - TNPCB",14-03-2025 10:00,11.258242,77.552761,CO,40,50,46
India,TamilNadu,Pudukottai,"SIPCOT Nathampannai, Pudukottai - TNPCB",14-03-2025 10:00,10.423417,78.784889,NH3,2,3,3
India,TamilNadu,Nagapattinam,"Velippalayam, Nagapattinam - TNPCB",14-03-2025 10:00,10.798548,79.838212,NO2,5,5,5
India,TamilNadu,Madurai,"Uchapatti, Madurai - TNPCB",14-03-2025 10:00,9.865935,78.022669,OZONE,5,6,6
India,Telangana,Hyderabad,"ICRISAT Patancheru, Hyderabad - TSPCB",14-03-2025 10:00,17.5184,78.278777,PM2.5,62,177,95
India,Telangana,Hyderabad,"ICRISAT Patancheru, Hyderabad - TSPCB",14-03-2025 10:00,17.5184,78.278777,CO,6,64,31
India,Telangana,Hyderabad,"ICRISAT Patancheru, Hyderabad - TSPCB",14-03-2025 10:00,17.5184,78.278777,OZONE,21,76,37
India,Telangana,Hyderabad,"IDA Pashamylaram, Hyderabad - TSPCB",14-03-2025 10:00,17.5316895,78.218939,PM2.5,63,182,109
India,TamilNadu,Virudhunagar,"Collectorate Office, Virudhunagar - TNPCB",14-03-2025 10:00,9.559382,77.948828,NO2,15,16,15
India,TamilNadu,Virudhunagar,"Collectorate Office, Virudhunagar - TNPCB",14-03-2025 10:00,9.559382,77.948828,CO,18,24,22
India,Telangana,Hyderabad,"Central University, Hyderabad - TSPCB",14-03-2025 10:00,17.460103,78.334361,PM2.5,28,70,46
India,Telangana,Hyderabad,"Central University, Hyderabad - TSPCB",14-03-2025 10:00,17.460103,78.334361,OZONE,13,18,16
India,Telangana,Hyderabad,"ECIL Kapra, Hyderabad - TSPCB",14-03-2025 10:00,17.470431,78.566959,PM2.5,48,67,57
India,TamilNadu,Tirunelveli,"Municipal Corporation Office, Tirunelveli - TNPCB",14-03-2025 10:00,8.728442,77.6962,PM10,13,36,25
India,TamilNadu,Tirunelveli,"Municipal Corporation Office, Tirunelveli - TNPCB",14-03-2025 10:00,8.728442,77.6962,NH3,1,2,1
India,TamilNadu,Salem,"Sona College of Technology, Salem - TNPCB",14-03-2025 10:00,11.679111,78.125052,PM2.5,3,96,40
India,TamilNadu,Salem,"Sona College of Technology, Salem - TNPCB",14-03-2025 10:00,11.679111,78.125052,NH3,3,3,3
India,TamilNadu,Thanjavur,"Parisutham Nagar, Thanjavur - TNPCB",14-03-2025 10:00,10.7654824,79.1389968,PM2.5,9,42,18
India,TamilNadu,Thanjavur,"Parisutham Nagar, Thanjavur - TNPCB",14-03-2025 10:00,10.7654824,79.1389968,NH3,2,2,2
India,TamilNadu,Tiruchirappalli,"St Joseph College, Tiruchirappalli - TNPCB",14-03-2025 10:00,10.830158,78.691849,NO2,7,10,8
India,TamilNadu,Tiruchirappalli,"St Joseph College, Tiruchirappalli - TNPCB",14-03-2025 10:00,10.830158,78.691849,NH3,4,4,4
India,TamilNadu,Ramanathapuram,"Chalai Bazaar, Ramanathapuram - TNPCB",14-03-2025 10:00,9.36399,78.831977,SO2,12,14,13
India,Telangana,Hyderabad,"Central University, Hyderabad - TSPCB",14-03-2025 10:00,17.460103,78.334361,SO2,7,16,11
India,Telangana,Hyderabad,"Zoo Park, Hyderabad - TSPCB",14-03-2025 10:00,17.349694,78.451437,OZONE,23,28,25
India,Tripura,Agartala,"Bardowali, Agartala - Tripura SPCB",14-03-2025 10:00,23.8175497,91.2726974,PM10,19,42,27
India,Tripura,Agartala,"Bardowali, Agartala - Tripura SPCB",14-03-2025 10:00,23.8175497,91.2726974,NH3,9,10,10
India,Telangana,Hyderabad,"Somajiguda, Hyderabad - TSPCB",14-03-2025 10:00,17.417094,78.457437,PM10,69,108,88
India,Telangana,Hyderabad,"Somajiguda, Hyderabad - TSPCB",14-03-2025 10:00,17.417094,78.457437,SO2,6,15,9
India,Telangana,Hyderabad,"Zoo Park, Hyderabad - TSPCB",14-03-2025 10:00,17.349694,78.451437,PM10,82,157,110
India,Telangana,Hyderabad,"New Malakpet, Hyderabad - TSPCB",14-03-2025 10:00,17.37206,78.50864,NH3,4,4,4
India,Telangana,Hyderabad,"Ramachandrapuram, Hyderabad - TSPCB",14-03-2025 10:00,17.528544,78.286195,NH3,NA,NA,NA
India,Uttar_Pradesh,Agra,"Shahjahan Garden, Agra - UPPCB",14-03-2025 10:00,27.169338,78.03582,SO2,29,53,41
India,Uttar_Pradesh,Agra,"Shastripuram, Agra - UPPCB",14-03-2025 10:00,27.19862,77.92066,PM10,38,146,84
India,Telangana,Hyderabad,"IDA Pashamylaram, Hyderabad - TSPCB",14-03-2025 10:00,17.5316895,78.218939,NH3,NA,NA,NA
India,Telangana,Hyderabad,"Kompally Municipal Office, Hyderabad - TSPCB",14-03-2025 10:00,17.544899,78.486949,NO2,14,14,14
India,Uttar_Pradesh,Agra,"Manoharpur, Agra - UPPCB",14-03-2025 10:00,27.23711,78.01936,SO2,3,8,5
India,Uttar_Pradesh,Agra,"Manoharpur, Agra - UPPCB",14-03-2025 10:00,27.23711,78.01936,CO,6,48,35
India,Uttar_Pradesh,Agra,"Manoharpur, Agra - UPPCB",14-03-2025 10:00,27.23711,78.01936,OZONE,2,44,5
India,Uttar_Pradesh,Agra,"Sector-3B Avas Vikas Colony, Agra - UPPCB",14-03-2025 10:00,27.19412,77.96237,PM10,27,448,98
India,Uttar_Pradesh,Agra,"Sector-3B Avas Vikas Colony, Agra - UPPCB",14-03-2025 10:00,27.19412,77.96237,NO2,8,8,8
India,Uttar_Pradesh,Baghpat,"Sardar Patel Inter College, Baghpat - UPPCB",14-03-2025 10:00,28.964949,77.278761,OZONE,5,102,13
India,Uttar_Pradesh,Agra,"Sanjay Palace, Agra - UPPCB",14-03-2025 10:00,27.19865833,78.00598056,OZONE,6,154,19
India,Uttar_Pradesh,Greater Noida,"Knowledge Park - III, Greater Noida - UPPCB",14-03-2025 10:00,28.47272,77.482,CO,14,76,66
India,Uttar_Pradesh,Greater Noida,"Knowledge Park - V, Greater Noida - UPPCB",14-03-2025 10:00,28.557054,77.453663,NO2,34,149,87
India,Uttar_Pradesh,Greater Noida,"Knowledge Park - V, Greater Noida - UPPCB",14-03-2025 10:00,28.557054,77.453663,NH3,11,19,15
India,Uttar_Pradesh,Hapur,"Anand Vihar, Hapur - UPPCB",14-03-2025 10:00,28.725645,77.749675,PM2.5,57,253,111
India,Uttar_Pradesh,Hapur,"Anand Vihar, Hapur - UPPCB",14-03-2025 10:00,28.725645,77.749675,CO,38,96,74
India,Uttar_Pradesh,Ghaziabad,"Indirapuram, Ghaziabad - UPPCB",14-03-2025 10:00,28.646233,77.358075,PM2.5,273,412,345
India,Uttar_Pradesh,Ghaziabad,"Indirapuram, Ghaziabad - UPPCB",14-03-2025 10:00,28.646233,77.358075,NO2,56,147,90
India,Uttar_Pradesh,Ghaziabad,"Loni, Ghaziabad - UPPCB",14-03-2025 10:00,28.757294,77.278792,NH3,5,13,8
India,Uttar_Pradesh,Ghaziabad,"Loni, Ghaziabad - UPPCB",14-03-2025 10:00,28.757294,77.278792,OZONE,1,163,6
India,Uttar_Pradesh,Ghaziabad,"Sanjay Nagar, Ghaziabad - UPPCB",14-03-2025 10:00,28.685382,77.453839,NH3,7,16,12
India,Uttar_Pradesh,Ghaziabad,"Vasundhara, Ghaziabad - UPPCB",14-03-2025 10:00,28.6603346,77.3572563,NH3,4,11,7
India,Uttar_Pradesh,Gorakhpur,"Madan Mohan Malaviya University of Technology, Gorakhpur - UPPCB",14-03-2025 10:00,26.730136,83.433859,SO2,39,39,39
India,Uttar_Pradesh,Firozabad,"Nagla Bhau, Firozabad - UPPCB",14-03-2025 10:00,27.168897,78.37696,CO,24,42,33
India,Uttar_Pradesh,Firozabad,"Vibhab Nagar, Firozabad - UPPCB",14-03-2025 10:00,27.1594,78.3953,NH3,2,2,2
India,Uttar_Pradesh,Greater Noida,"Knowledge Park - III, Greater Noida - UPPCB",14-03-2025 10:00,28.47272,77.482,PM2.5,30,100,61
India,Uttar_Pradesh,Bulandshahr,"Yamunapuram, Bulandshahr - UPPCB",14-03-2025 10:00,28.406963,77.849831,NH3,13,18,15
India,Uttar_Pradesh,Firozabad,"Vibhab Nagar, Firozabad - UPPCB",14-03-2025 10:00,27.1594,78.3953,CO,2,40,22
India,Uttar_Pradesh,Jhansi,"Shivaji Nagar, Jhansi - UPPCB",14-03-2025 10:00,25.4547,78.6039,CO,8,40,20
India,Uttar_Pradesh,Jhansi,"Shivaji Nagar, Jhansi - UPPCB",14-03-2025 10:00,25.4547,78.6039,NO2,6,6,6
India,Uttar_Pradesh,Meerut,"Pallavpuram Phase 2, Meerut - UPPCB",14-03-2025 10:00,29.06351,77.709723,PM10,72,149,115
India,Uttar_Pradesh,Meerut,"Pallavpuram Phase 2, Meerut - UPPCB",14-03-2025 10:00,29.06351,77.709723,NO2,10,40,20
India,Uttar_Pradesh,Meerut,"Pallavpuram Phase 2, Meerut - UPPCB",14-03-2025 10:00,29.06351,77.709723,OZONE,4,43,7
India,Uttar_Pradesh,Moradabad,"Buddhi Vihar, Moradabad - UPPCB",14-03-2025 10:00,28.83526,78.7446,NO2,22,24,22
India,Uttar_Pradesh,Moradabad,"Buddhi Vihar, Moradabad - UPPCB",14-03-2025 10:00,28.83526,78.7446,OZONE,1,74,1
India,Uttar_Pradesh,Moradabad,"Eco Herbal Park, Moradabad - UPPCB",14-03-2025 10:00,28.840739,78.697531,CO,6,80,43
India,Uttar_Pradesh,Moradabad,"Employment Office, Moradabad - UPPCB",14-03-2025 10:00,28.88528,78.7388,PM2.5,27,114,66
India,Uttar_Pradesh,Moradabad,"Employment Office, Moradabad - UPPCB",14-03-2025 10:00,28.88528,78.7388,OZONE,10,54,12
India,Uttar_Pradesh,Moradabad,"Jigar Colony, Moradabad - UPPCB",14-03-2025 10:00,28.856664,78.772638,CO,26,40,35
India,Uttar_Pradesh,Moradabad,"Kashiram Nagar, Moradabad - UPPCB",14-03-2025 10:00,28.849399,78.742362,PM10,38,106,77
India,Uttar_Pradesh,Lucknow,"Kukrail Picnic Spot-1, Lucknow - UPPCB",14-03-2025 10:00,26.90723,80.98579,SO2,32,36,34
India,Uttar_Pradesh,Lucknow,"Kukrail Picnic Spot-1, Lucknow - UPPCB",14-03-2025 10:00,26.90723,80.98579,CO,2,31,26
India,Uttar_Pradesh,Lucknow,"Lalbagh, Lucknow - CPCB",14-03-2025 10:00,26.8458805,80.9365541,PM10,130,218,173
India,Uttar_Pradesh,Lucknow,"Lalbagh, Lucknow - CPCB",14-03-2025 10:00,26.8458805,80.9365541,SO2,1,21,10
India,Uttar_Pradesh,Lucknow,"Talkatora District Industries Center, Lucknow - CPCB",14-03-2025 10:00,26.83399722,80.8917361,SO2,1,11,6
India,Uttar_Pradesh,Meerut,"Jai Bhim Nagar, Meerut - UPPCB",14-03-2025 10:00,28.9535882,77.7622941,PM2.5,28,264,84
India,Uttar_Pradesh,Meerut,"Jai Bhim Nagar, Meerut - UPPCB",14-03-2025 10:00,28.9535882,77.7622941,PM10,70,183,116
India,Uttar_Pradesh,Kanpur,"Nehru Nagar, Kanpur - UPPCB",14-03-2025 10:00,26.4703136,80.3229863,PM2.5,37,401,152
India,Uttar_Pradesh,Lucknow,"Gomti Nagar, Lucknow - UPPCB",14-03-2025 10:00,26.86812,81.005119,PM10,33,154,66
India,Uttar_Pradesh,Moradabad,"Transport Nagar, Moradabad - UPPCB",14-03-2025 10:00,28.802625,78.753728,NH3,5,5,5
India,Uttar_Pradesh,Kanpur,"NSI Kalyanpur, Kanpur - UPPCB",14-03-2025 10:00,26.509954,80.249612,NO2,24,24,24
India,Uttar_Pradesh,Muzaffarnagar,"New Mandi, Muzaffarnagar - UPPCB",14-03-2025 10:00,29.4723508,77.7194031,PM2.5,28,252,123
India,Uttar_Pradesh,Muzaffarnagar,"New Mandi, Muzaffarnagar - UPPCB",14-03-2025 10:00,29.4723508,77.7194031,NH3,4,9,6
India,Uttar_Pradesh,Muzaffarnagar,"New Mandi, Muzaffarnagar - UPPCB",14-03-2025 10:00,29.4723508,77.7194031,CO,15,76,67
India,Uttar_Pradesh,Varanasi,"Ardhali Bazar, Varanasi - UPPCB",14-03-2025 10:00,25.3505986,82.9083074,SO2,11,20,15
India,Uttar_Pradesh,Varanasi,"Bhelupur, Varanasi - UPPCB",14-03-2025 10:00,25.301778,82.996789,PM10,78,388,157
India,Uttar_Pradesh,Noida,"Sector - 125, Noida - UPPCB",14-03-2025 10:00,28.5447608,77.3231257,PM10,58,156,107
India,Uttar_Pradesh,Noida,"Sector - 125, Noida - UPPCB",14-03-2025 10:00,28.5447608,77.3231257,NH3,7,10,8
India,Uttar_Pradesh,Noida,"Sector-1, Noida - UPPCB",14-03-2025 10:00,28.5898,77.3101,PM2.5,35,211,100
India,Uttar_Pradesh,Noida,"Sector-1, Noida - UPPCB",14-03-2025 10:00,28.5898,77.3101,OZONE,4,67,5
India,Uttar_Pradesh,Prayagraj,"Nagar Nigam, Prayagraj - UPPCB",14-03-2025 10:00,25.44919916,81.82735986,NO2,5,5,5
India,Uttar_Pradesh,Prayagraj,"Nagar Nigam, Prayagraj - UPPCB",14-03-2025 10:00,25.44919916,81.82735986,SO2,5,78,24
India,Uttar_Pradesh,Prayagraj,"Motilal Nehru NIT, Prayagraj - UPPCB",14-03-2025 10:00,25.494,81.863,CO,16,82,70
India,Uttar_Pradesh,Prayagraj,"Jhunsi, Prayagraj - UPPCB",14-03-2025 10:00,25.425602,81.917152,SO2,29,33,31
India,Uttar_Pradesh,Noida,"Sector - 62, Noida - IMD",14-03-2025 10:00,28.6245479,77.3577104,NO2,20,51,35
India,Uttar_Pradesh,Prayagraj,"Jhunsi, Prayagraj - UPPCB",14-03-2025 10:00,25.425602,81.917152,CO,8,105,85
India,West_Bengal,Asansol,"Evelyn Lodge, Asansol - WBPCB",14-03-2025 10:00,23.697936,86.944395,OZONE,12,86,21
India,West_Bengal,Asansol,"Mahabir Colliery, Asansol - WBPCB",14-03-2025 10:00,23.618183,87.105718,NO2,10,86,46
India,West_Bengal,Asansol,"Trivenidevi Bhalotia College, Asansol - WBPCB",14-03-2025 10:00,23.616515,87.119133,PM2.5,55,310,181
India,West_Bengal,Asansol,"Trivenidevi Bhalotia College, Asansol - WBPCB",14-03-2025 10:00,23.616515,87.119133,NH3,3,4,3
India,Uttar_Pradesh,Varanasi,"Maldahiya, Varanasi - UPPCB",14-03-2025 10:00,25.32393,82.99687,OZONE,1,16,2
India,Uttar_Pradesh,Vrindavan,"Omex Eternity, Vrindavan - UPPCB",14-03-2025 10:00,27.571409,77.655757,PM10,30,214,112
India,Uttar_Pradesh,Vrindavan,"Omex Eternity, Vrindavan - UPPCB",14-03-2025 10:00,27.571409,77.655757,NH3,1,2,2
India,Uttar_Pradesh,Varanasi,"IESD Banaras Hindu University, Varanasi - UPPCB",14-03-2025 10:00,25.262326,82.995408,OZONE,NA,NA,NA
India,West_Bengal,Asansol,"Trivenidevi Bhalotia College, Asansol - WBPCB",14-03-2025 10:00,23.616515,87.119133,OZONE,8,135,24
India,Uttarakhand,Kashipur,"Govt. Girls Inter College, Kashipur - UKPCB",14-03-2025 10:00,29.2124114,78.9611753,CO,NA,NA,NA
India,West_Bengal,Asansol,"Asansol Court Area, Asansol - WBPCB",14-03-2025 10:00,23.685297,86.945968,PM10,79,199,146
India,Uttarakhand,Rishikesh,"Shivaji Nagar, Rishikesh - UKPCB",14-03-2025 10:00,30.075911,78.2859547,PM10,32,68,52
India,Uttarakhand,Rishikesh,"Shivaji Nagar, Rishikesh - UKPCB",14-03-2025 10:00,30.075911,78.2859547,NH3,5,8,6
India,Uttar_Pradesh,Varanasi,"Maldahiya, Varanasi - UPPCB",14-03-2025 10:00,25.32393,82.99687,CO,17,102,92
India,West_Bengal,Barrackpore,"SVSPA Campus, Barrackpore - WBPCB",14-03-2025 10:00,22.7605581,88.3617589,OZONE,8,101,17
India,West_Bengal,Durgapur,"PCBL Residential Complex, Durgapur - WBPCB",14-03-2025 10:00,23.508764,87.35444,NO2,17,116,54
India,West_Bengal,Durgapur,"Sidhu Kanhu Indoor Stadium, Durgapur - WBPCB",14-03-2025 10:00,23.5404352,87.2892225,PM10,122,372,236
India,West_Bengal,Haldia,"Priyambada Housing Estate, Haldia - WBPCB",14-03-2025 10:00,22.06047,88.109737,OZONE,22,28,23
India,West_Bengal,Howrah,"Botanical Garden, Howrah - WBPCB",14-03-2025 10:00,22.554954,88.292568,NO2,6,13,10
India,West_Bengal,Howrah,"Dasnagar, Howrah - WBPCB",14-03-2025 10:00,22.6025571,88.3105664,PM10,60,150,92
India,West_Bengal,Howrah,"Dasnagar, Howrah - WBPCB",14-03-2025 10:00,22.6025571,88.3105664,NO2,8,51,25
India,West_Bengal,Howrah,"Ghusuri, Howrah - WBPCB",14-03-2025 10:00,22.611968,88.347422,PM2.5,55,247,115
India,West_Bengal,Howrah,"Ghusuri, Howrah - WBPCB",14-03-2025 10:00,22.611968,88.347422,NH3,3,4,3
India,West_Bengal,Howrah,"Padmapukur, Howrah - WBPCB",14-03-2025 10:00,22.5687319,88.2797276,CO,32,78,68
India,West_Bengal,Kolkata,"Fort William, Kolkata - WBPCB",14-03-2025 10:00,22.55664,88.342674,NH3,6,7,6
India,West_Bengal,Kolkata,"Fort William, Kolkata - WBPCB",14-03-2025 10:00,22.55664,88.342674,SO2,3,28,11
India,West_Bengal,Kolkata,"Fort William, Kolkata - WBPCB",14-03-2025 10:00,22.55664,88.342674,CO,26,44,27
India,West_Bengal,Kolkata,"Jadavpur, Kolkata - WBPCB",14-03-2025 10:00,22.49929,88.36917,PM10,82,142,104
India,West_Bengal,Kolkata,"Rabindra Bharati University, Kolkata - WBPCB",14-03-2025 10:00,22.627847,88.380669,PM2.5,56,111,77
India,West_Bengal,Kolkata,"Rabindra Sarobar, Kolkata - WBPCB",14-03-2025 10:00,22.51106,88.35142,NO2,17,49,29
India,West_Bengal,Kolkata,"Rabindra Sarobar, Kolkata - WBPCB",14-03-2025 10:00,22.51106,88.35142,CO,18,37,20
India,West_Bengal,Kolkata,"Victoria, Kolkata - WBPCB",14-03-2025 10:00,22.5448082,88.3403691,OZONE,19,86,22
India,West_Bengal,Siliguri,"Ward-32 Bapupara, Siliguri - WBPCB",14-03-2025 10:00,26.6879226,88.4152495,PM2.5,39,87,64
India,Andhra_Pradesh,Vijayawada,"Rajiv Nagar, Vijayawada - APPCB",14-03-2025 10:00,16.554731,80.64911,SO2,14,27,21
India,Andhra_Pradesh,Visakhapatnam,"GVM Corporation, Visakhapatnam - APPCB",14-03-2025 10:00,17.72,83.3,PM2.5,18,84,47
India,Andhra_Pradesh,Visakhapatnam,"GVM Corporation, Visakhapatnam - APPCB",14-03-2025 10:00,17.72,83.3,NH3,1,10,3
India,Arunachal_Pradesh,Naharlagun,"Naharlagun, Naharlagun - APSPCB",14-03-2025 10:00,27.103358,93.679645,PM10,19,63,39
India,Arunachal_Pradesh,Naharlagun,"Naharlagun, Naharlagun - APSPCB",14-03-2025 10:00,27.103358,93.679645,SO2,5,6,6
India,Arunachal_Pradesh,Naharlagun,"Naharlagun, Naharlagun - APSPCB",14-03-2025 10:00,27.103358,93.679645,CO,12,26,14
India,Arunachal_Pradesh,Naharlagun,"Naharlagun, Naharlagun - APSPCB",14-03-2025 10:00,27.103358,93.679645,OZONE,3,3,3
India,Assam,Byrnihat,"Central Academy for SFS, Byrnihat - PCBA",14-03-2025 10:00,26.071318,91.87488,SO2,20,32,29
India,Assam,Guwahati,"IITG, Guwahati - PCBA",14-03-2025 10:00,26.2028636,91.70046436,PM2.5,30,57,40
India,Assam,Guwahati,"IITG, Guwahati - PCBA",14-03-2025 10:00,26.2028636,91.70046436,PM10,25,88,46
India,Assam,Guwahati,"IITG, Guwahati - PCBA",14-03-2025 10:00,26.2028636,91.70046436,NO2,NA,NA,NA
India,Andaman and Nicobar,Sri Vijaya Puram,"Police Line, Sri Vijaya Puram - ANPCC",14-03-2025 10:00,11.654054,92.734055,CO,30,51,42
India,Andaman and Nicobar,Sri Vijaya Puram,"Police Line, Sri Vijaya Puram - ANPCC",14-03-2025 10:00,11.654054,92.734055,OZONE,2,39,4
India,Andhra_Pradesh,Amaravati,"Secretariat, Amaravati - APPCB",14-03-2025 10:00,16.5150833,80.5181667,PM2.5,4,53,29
India,Andhra_Pradesh,Amaravati,"Secretariat, Amaravati - APPCB",14-03-2025 10:00,16.5150833,80.5181667,NO2,6,15,10
India,Assam,Guwahati,"IITG, Guwahati - PCBA",14-03-2025 10:00,26.2028636,91.70046436,SO2,17,33,18
India,Assam,Guwahati,"LGBI Airport, Guwahati - PCBA",14-03-2025 10:00,26.10887,91.589544,PM10,63,121,93
India,Assam,Guwahati,"LGBI Airport, Guwahati - PCBA",14-03-2025 10:00,26.10887,91.589544,NO2,10,22,20
India,Assam,Guwahati,"LGBI Airport, Guwahati - PCBA",14-03-2025 10:00,26.10887,91.589544,SO2,2,17,11
India,Assam,Guwahati,"Pan Bazaar, Guwahati - PCBA",14-03-2025 10:00,26.1875,91.744194,CO,23,30,27
India,Assam,Nagaon,"Christianpatty, Nagaon - PCBA",14-03-2025 10:00,26.349082,92.68449,PM10,18,65,35
India,Assam,Nagaon,"Christianpatty, Nagaon - PCBA",14-03-2025 10:00,26.349082,92.68449,NO2,1,10,4
India,Andhra_Pradesh,Vijayawada,"Rajiv Nagar, Vijayawada - APPCB",14-03-2025 10:00,16.554731,80.64911,PM2.5,46,89,58
India,Andhra_Pradesh,Vijayawada,"Rajiv Nagar, Vijayawada - APPCB",14-03-2025 10:00,16.554731,80.64911,PM10,44,94,57
India,Andhra_Pradesh,Tirupati,"Vaikuntapuram, Tirupati - APPCB",14-03-2025 10:00,13.615387,79.40923,NH3,1,6,3
India,Andhra_Pradesh,Tirupati,"Vaikuntapuram, Tirupati - APPCB",14-03-2025 10:00,13.615387,79.40923,SO2,3,4,4
India,Andhra_Pradesh,Rajamahendravaram,"Anand Kala Kshetram, Rajamahendravaram - APPCB",14-03-2025 10:00,16.9872867,81.7363176,PM10,24,81,46
India,Andhra_Pradesh,Chittoor,"Gangineni Cheruvu, Chittoor - APPCB",14-03-2025 10:00,13.20488,79.097889,NH3,3,4,3
India,Andhra_Pradesh,Vijayawada,"Kanuru, Vijayawada - APPCB",14-03-2025 10:00,16.486692,80.699436,NH3,4,6,5
India,Bihar,Motihari,"Gandak Colony, Motihari - BSPCB",14-03-2025 10:00,26.63086,84.90051,PM10,80,139,109
India,Bihar,Munger,"Town Hall, Munger - BSPCB",14-03-2025 10:00,25.376776,86.471523,NH3,6,7,6
India,Bihar,Munger,"Town Hall, Munger - BSPCB",14-03-2025 10:00,25.376776,86.471523,OZONE,5,40,7
India,Bihar,Muzaffarpur,"Buddha Colony, Muzaffarpur - BSPCB",14-03-2025 10:00,26.11442,85.39813,NO2,NA,NA,NA
India,Bihar,Muzaffarpur,"Buddha Colony, Muzaffarpur - BSPCB",14-03-2025 10:00,26.11442,85.39813,NH3,NA,NA,NA
India,Assam,Nagaon,"Christianpatty, Nagaon - PCBA",14-03-2025 10:00,26.349082,92.68449,OZONE,1,12,3
India,Assam,Nalbari,"Bata Chowk, Nalbari - PCBA",14-03-2025 10:00,26.446912,91.439057,PM2.5,NA,NA,NA
India,Assam,Nalbari,"Bata Chowk, Nalbari - PCBA",14-03-2025 10:00,26.446912,91.439057,PM10,NA,NA,NA
India,Bihar,Araria,"Kharahiya Basti, Araria - BSPCB",14-03-2025 10:00,26.146529,87.454184,CO,30,36,34
India,Bihar,Gaya,"SFTI Kusdihra, Gaya - BSPCB",14-03-2025 10:00,24.762518,84.982348,NH3,3,4,3
India,Bihar,Hajipur,"Industrial Area, Hajipur - BSPCB",14-03-2025 10:00,25.697189,85.2459,SO2,5,7,5
India,Bihar,Kishanganj,"SDM Office_Khagra, Kishanganj - BSPCB",14-03-2025 10:00,26.0881305,87.93840336,OZONE,19,22,19
India,Bihar,Gaya,"Collectorate, Gaya - BSPCB",14-03-2025 10:00,24.7955,84.9994,PM2.5,45,437,177
India,Bihar,Gaya,"Collectorate, Gaya - BSPCB",14-03-2025 10:00,24.7955,84.9994,SO2,13,15,14
India,Bihar,Gaya,"Kareemganj, Gaya - BSPCB",14-03-2025 10:00,24.792403,84.992416,NO2,2,7,5
India,Bihar,Arrah,"New DM Office, Arrah - BSPCB",14-03-2025 10:00,25.5626095,84.663264,NH3,1,1,1
India,Bihar,Aurangabad,"Gurdeo Nagar, Aurangabad - BSPCB",14-03-2025 10:00,24.75746,84.366208,PM2.5,57,339,188
India,Bihar,Bihar Sharif,"D M Colony, Bihar Sharif - BSPCB",14-03-2025 10:00,25.204762,85.51496,NH3,NA,NA,NA
India,Bihar,Bettiah,"Kamalnath Nagar, Bettiah - BSPCB",14-03-2025 10:00,26.80365,84.51954,CO,55,96,87
India,Bihar,Begusarai,"Lohiyanagar, Begusarai - BSPCB",14-03-2025 10:00,25.42742023,86.13886079,NH3,10,14,14
India,Bihar,Bhagalpur,"Mayaganj, Bhagalpur - BSPCB",14-03-2025 10:00,25.265194,87.012947,NH3,1,8,7
India,Bihar,Muzaffarpur,"Muzaffarpur Collectorate, Muzaffarpur - BSPCB",14-03-2025 10:00,26.1209,85.3647,NO2,6,16,11
India,Bihar,Muzaffarpur,"Muzaffarpur Collectorate, Muzaffarpur - BSPCB",14-03-2025 10:00,26.1209,85.3647,CO,10,33,15
India,Bihar,Patna,"DRM Office Danapur, Patna - BSPCB",14-03-2025 10:00,25.586562,85.043586,NO2,28,34,32
India,Bihar,Patna,"DRM Office Danapur, Patna - BSPCB",14-03-2025 10:00,25.586562,85.043586,CO,23,115,78
India,Bihar,Patna,"Govt. High School Shikarpur, Patna - BSPCB",14-03-2025 10:00,25.592539,85.227158,PM2.5,71,155,114
India,Bihar,Samastipur,"DM Office_Kasipur, Samastipur - BSPCB",14-03-2025 10:00,25.859655,85.77944,PM10,156,316,210
India,Bihar,Samastipur,"DM Office_Kasipur, Samastipur - BSPCB",14-03-2025 10:00,25.859655,85.77944,NO2,1,2,1
India,Bihar,Samastipur,"DM Office_Kasipur, Samastipur - BSPCB",14-03-2025 10:00,25.859655,85.77944,SO2,1,18,10
India,Bihar,Sasaram,"Dada Peer, Sasaram - BSPCB",14-03-2025 10:00,24.952822,84.002396,NO2,2,3,2
India,Chandigarh,Chandigarh,"Sector 22, Chandigarh - CPCC",14-03-2025 10:00,30.735567,76.775714,PM2.5,18,140,65
India,Chandigarh,Chandigarh,"Sector-25, Chandigarh - CPCC",14-03-2025 10:00,30.751462,76.762879,SO2,3,9,6
India,Chhattisgarh,Bhilai,"32Bungalows, Bhilai - CECB",14-03-2025 10:00,21.194815,81.31477,PM2.5,47,222,95
India,Chhattisgarh,Bhilai,"32Bungalows, Bhilai - CECB",14-03-2025 10:00,21.194815,81.31477,NO2,11,139,58
India,Bihar,Patna,"Muradpur, Patna - BSPCB",14-03-2025 10:00,25.619651,85.147382,NH3,1,5,2
India,Bihar,Patna,"Muradpur, Patna - BSPCB",14-03-2025 10:00,25.619651,85.147382,SO2,4,11,7
India,Bihar,Patna,"Rajbansi Nagar, Patna - BSPCB",14-03-2025 10:00,25.599486,85.113666,PM10,65,172,119
India,Bihar,Patna,"Rajbansi Nagar, Patna - BSPCB",14-03-2025 10:00,25.599486,85.113666,SO2,5,17,12
India,Bihar,Patna,"Samanpura, Patna - BSPCB",14-03-2025 10:00,25.596727,85.085624,CO,30,125,109
India,Bihar,Rajgir,"Dangi Tola, Rajgir - BSPCB",14-03-2025 10:00,25.0328,85.41948,PM10,28,183,75
India,Bihar,Rajgir,"Dangi Tola, Rajgir - BSPCB",14-03-2025 10:00,25.0328,85.41948,NH3,2,3,2
India,Bihar,Muzaffarpur,"Buddha Colony, Muzaffarpur - BSPCB",14-03-2025 10:00,26.11442,85.39813,SO2,NA,NA,NA
India,Bihar,Muzaffarpur,"Buddha Colony, Muzaffarpur - BSPCB",14-03-2025 10:00,26.11442,85.39813,OZONE,NA,NA,NA
India,Bihar,Patna,"Govt. High School Shikarpur, Patna - BSPCB",14-03-2025 10:00,25.592539,85.227158,OZONE,7,68,15
India,Chandigarh,Chandigarh,"Sector-25, Chandigarh - CPCC",14-03-2025 10:00,30.751462,76.762879,PM10,87,150,106
India,Chandigarh,Chandigarh,"Sector 22, Chandigarh - CPCC",14-03-2025 10:00,30.735567,76.775714,OZONE,2,142,21
India,Chhattisgarh,Bhilai,"32Bungalows, Bhilai - CECB",14-03-2025 10:00,21.194815,81.31477,OZONE,8,41,29
India,Chhattisgarh,Bhilai,"Civic Center, Bhilai - Bhilai Steel Plant",14-03-2025 10:00,21.185571,81.343175,PM2.5,15,68,40
India,Chhattisgarh,Bhilai,"Civic Center, Bhilai - Bhilai Steel Plant",14-03-2025 10:00,21.185571,81.343175,SO2,7,13,11
India,Chhattisgarh,Bhilai,"Hathkhoj, Bhilai - CECB",14-03-2025 10:00,21.224231,81.40835,PM10,70,190,128
India,Chhattisgarh,Bhilai,"Hathkhoj, Bhilai - CECB",14-03-2025 10:00,21.224231,81.40835,NH3,3,6,4
India,Chhattisgarh,Bilaspur,"Mangala, Bilaspur - NTPC",14-03-2025 10:00,22.08815,82.13737,CO,24,42,34
India,Chhattisgarh,Chhal,"Nawapara SECL Colony, Chhal - CECB",14-03-2025 10:00,22.118125,83.140608,OZONE,18,58,22
India,Chhattisgarh,Korba,"Rampur, Korba - CECB",14-03-2025 10:00,22.368195,82.746431,NH3,NA,NA,NA
India,Chhattisgarh,Korba,"Rampur, Korba - CECB",14-03-2025 10:00,22.368195,82.746431,SO2,NA,NA,NA
India,Chhattisgarh,Korba,"Urja Nagar, Korba - CECB",14-03-2025 10:00,22.348441,82.549611,NO2,61,87,75
India,Chhattisgarh,Korba,"Urja Nagar, Korba - CECB",14-03-2025 10:00,22.348441,82.549611,NH3,1,6,3
India,Chhattisgarh,Korba,"Urja Nagar, Korba - CECB",14-03-2025 10:00,22.348441,82.549611,CO,24,124,111
India,Chhattisgarh,Korba,"Urja Nagar, Korba - CECB",14-03-2025 10:00,22.348441,82.549611,OZONE,35,36,35
India,Chhattisgarh,Raipur,"AIIMS, Raipur - CECB",14-03-2025 10:00,21.258815,81.578979,PM2.5,26,147,68
India,Chhattisgarh,Tumidih,"OP Jindal Industrial Park, Tumidih - CECB",14-03-2025 10:00,22.06631475,83.33820077,PM10,90,423,197
India,Chhattisgarh,Tumidih,"OP Jindal Industrial Park, Tumidih - CECB",14-03-2025 10:00,22.06631475,83.33820077,CO,21,103,80
India,Delhi,Delhi,"Alipur, Delhi - DPCC",14-03-2025 10:00,28.815329,77.15301,CO,40,77,66
India,Delhi,Delhi,"Anand Vihar, Delhi - DPCC",14-03-2025 10:00,28.647622,77.315809,PM10,167,370,239
India,Chhattisgarh,Raipur,"Bhatagaon New ISBT, Raipur - CECB",14-03-2025 10:00,21.219665,81.630094,NH3,2,2,2
India,Chhattisgarh,Raipur,"Krishak Nagar, Raipur - CECB",14-03-2025 10:00,21.237755,81.705301,PM2.5,32,65,46
India,Chhattisgarh,Raipur,"Krishak Nagar, Raipur - CECB",14-03-2025 10:00,21.237755,81.705301,PM10,38,98,65
India,Chhattisgarh,Raipur,"Krishak Nagar, Raipur - CECB",14-03-2025 10:00,21.237755,81.705301,SO2,11,19,13
India,Chhattisgarh,Raipur,"Krishak Nagar, Raipur - CECB",14-03-2025 10:00,21.237755,81.705301,CO,27,46,46
India,Chhattisgarh,Raipur,"AIIMS, Raipur - CECB",14-03-2025 10:00,21.258815,81.578979,OZONE,5,56,6
India,Chhattisgarh,Raipur,"Bhatagaon New ISBT, Raipur - CECB",14-03-2025 10:00,21.219665,81.630094,PM10,31,126,88
India,Delhi,Delhi,"Chandni Chowk, Delhi - IITM",14-03-2025 10:00,28.656756,77.227234,PM2.5,137,336,264
India,Delhi,Delhi,"Chandni Chowk, Delhi - IITM",14-03-2025 10:00,28.656756,77.227234,SO2,25,33,29
India,Delhi,Delhi,"Chandni Chowk, Delhi - IITM",14-03-2025 10:00,28.656756,77.227234,CO,55,144,124
India,Delhi,Delhi,"Aya Nagar, Delhi - IMD",14-03-2025 10:00,28.4706914,77.1099364,PM10,103,178,138
India,Delhi,Delhi,"Anand Vihar, Delhi - DPCC",14-03-2025 10:00,28.647622,77.315809,SO2,16,40,25
India,Delhi,Delhi,"Bawana, Delhi - DPCC",14-03-2025 10:00,28.7762,77.051074,NH3,8,11,9
India,Delhi,Delhi,"Jawaharlal Nehru Stadium, Delhi - DPCC",14-03-2025 10:00,28.58028,77.233829,CO,22,127,106
India,Delhi,Delhi,"Lodhi Road, Delhi - IITM",14-03-2025 10:00,28.588333,77.221667,NO2,57,146,98
India,Delhi,Delhi,"Major Dhyan Chand National Stadium, Delhi - DPCC",14-03-2025 10:00,28.611281,77.237738,PM2.5,70,355,203
India,Delhi,Delhi,"Major Dhyan Chand National Stadium, Delhi - DPCC",14-03-2025 10:00,28.611281,77.237738,SO2,9,33,17
India,Delhi,Delhi,"Mundka, Delhi - DPCC",14-03-2025 10:00,28.684678,77.076574,PM2.5,75,483,248
India,Delhi,Delhi,"Mundka, Delhi - DPCC",14-03-2025 10:00,28.684678,77.076574,NH3,8,9,9
India,Delhi,Delhi,"NSIT Dwarka, Delhi - CPCB",14-03-2025 10:00,28.60909,77.0325413,CO,50,136,51
India,Delhi,Delhi,"Najafgarh, Delhi - DPCC",14-03-2025 10:00,28.570173,76.933762,PM10,75,221,135
India,Delhi,Delhi,"IGI Airport (T3), Delhi - IMD",14-03-2025 10:00,28.5627763,77.1180053,PM2.5,58,376,169
India,Delhi,Delhi,"IGI Airport (T3), Delhi - IMD",14-03-2025 10:00,28.5627763,77.1180053,PM10,83,278,156
India,Delhi,Delhi,"IGI Airport (T3), Delhi - IMD",14-03-2025 10:00,28.5627763,77.1180053,CO,30,118,107
India,Delhi,Delhi,"IHBAS, Dilshad Garden, Delhi - CPCB",14-03-2025 10:00,28.6811736,77.3025234,SO2,16,25,20
India,Delhi,Delhi,"Narela, Delhi - DPCC",14-03-2025 10:00,28.822836,77.101981,NH3,7,9,8
India,Delhi,Delhi,"Narela, Delhi - DPCC",14-03-2025 10:00,28.822836,77.101981,OZONE,9,52,11
India,Delhi,Delhi,"Nehru Nagar, Delhi - DPCC",14-03-2025 10:00,28.56789,77.250515,PM10,116,263,165
India,Delhi,Delhi,"Nehru Nagar, Delhi - DPCC",14-03-2025 10:00,28.56789,77.250515,NO2,28,78,57
India,Delhi,Delhi,"Jahangirpuri, Delhi - DPCC",14-03-2025 10:00,28.73282,77.170633,NH3,5,15,12
India,Delhi,Delhi,"Jawaharlal Nehru Stadium, Delhi - DPCC",14-03-2025 10:00,28.58028,77.233829,PM10,116,339,174
India,Delhi,Delhi,"Patparganj, Delhi - DPCC",14-03-2025 10:00,28.623763,77.287209,NH3,6,10,7
India,Delhi,Delhi,"Punjabi Bagh, Delhi - DPCC",14-03-2025 10:00,28.674045,77.131023,NH3,8,13,10
India,Delhi,Delhi,"DTU, Delhi - CPCB",14-03-2025 10:00,28.7500499,77.1112615,NO2,30,43,38
India,Delhi,Delhi,"DTU, Delhi - CPCB",14-03-2025 10:00,28.7500499,77.1112615,NH3,12,17,13
India,Delhi,Delhi,"Dr. Karni Singh Shooting Range, Delhi - DPCC",14-03-2025 10:00,28.498571,77.26484,PM2.5,52,309,127
India,Delhi,Delhi,"Dwarka-Sector 8, Delhi - DPCC ",14-03-2025 10:00,28.5710274,77.0719006,PM2.5,68,427,211
India,Gujarat,Ahmedabad,"Chandkheda, Ahmedabad - IITM",14-03-2025 10:00,23.107969,72.574648,PM2.5,67,188,113
India,Gujarat,Ahmedabad,"Chandkheda, Ahmedabad - IITM",14-03-2025 10:00,23.107969,72.574648,PM10,62,120,84
India,Gujarat,Ahmedabad,"Chandkheda, Ahmedabad - IITM",14-03-2025 10:00,23.107969,72.574648,NO2,NA,NA,NA
India,Gujarat,Ahmedabad,"Chandkheda, Ahmedabad - IITM",14-03-2025 10:00,23.107969,72.574648,NH3,NA,NA,NA
India,Gujarat,Ahmedabad,"Chandkheda, Ahmedabad - IITM",14-03-2025 10:00,23.107969,72.574648,CO,36,104,69
India,Gujarat,Ahmedabad,"Gyaspur, Ahmedabad - IITM",14-03-2025 10:00,22.977134,72.553024,NH3,2,9,4
India,Gujarat,Ahmedabad,"Gyaspur, Ahmedabad - IITM",14-03-2025 10:00,22.977134,72.553024,SO2,3,94,40
India,Delhi,Delhi,"Shadipur, Delhi - CPCB",14-03-2025 10:00,28.6514781,77.1473105,PM2.5,68,388,186
India,Delhi,Delhi,"Shadipur, Delhi - CPCB",14-03-2025 10:00,28.6514781,77.1473105,OZONE,14,68,26
India,Delhi,Delhi,"Sirifort, Delhi - CPCB",14-03-2025 10:00,28.5504249,77.2159377,PM2.5,54,329,219
India,Delhi,Delhi,"Sirifort, Delhi - CPCB",14-03-2025 10:00,28.5504249,77.2159377,NH3,11,19,13
India,Delhi,Delhi,"Sirifort, Delhi - CPCB",14-03-2025 10:00,28.5504249,77.2159377,SO2,64,76,71
India,Delhi,Delhi,"Sonia Vihar, Delhi - DPCC",14-03-2025 10:00,28.710508,77.249485,NH3,7,11,9
India,Delhi,Delhi,"Punjabi Bagh, Delhi - DPCC",14-03-2025 10:00,28.674045,77.131023,OZONE,1,115,9
India,Delhi,Delhi,"Pusa, Delhi - DPCC",14-03-2025 10:00,28.639652,77.146275,CO,12,68,38
India,Delhi,Delhi,"Pusa, Delhi - IMD",14-03-2025 10:00,28.63611,77.173332,PM2.5,81,307,165
India,Delhi,Delhi,"Pusa, Delhi - IMD",14-03-2025 10:00,28.63611,77.173332,OZONE,14,74,27
India,Delhi,Delhi,"R K Puram, Delhi - DPCC",14-03-2025 10:00,28.563262,77.186937,NH3,6,8,6
India,Gujarat,Gandhinagar,"GIFT City, Gandhinagar - IITM",14-03-2025 10:00,23.163798,72.677768,NO2,NA,NA,NA
India,Gujarat,Gandhinagar,"IIPHG Lekawada, Gandhinagar - IITM",14-03-2025 10:00,23.243639,72.68994,NO2,21,78,39
India,Gujarat,Gandhinagar,"IIPHG Lekawada, Gandhinagar - IITM",14-03-2025 10:00,23.243639,72.68994,CO,30,52,39
India,Gujarat,Gandhinagar,"IIPHG Lekawada, Gandhinagar - IITM",14-03-2025 10:00,23.243639,72.68994,OZONE,6,77,16
India,Gujarat,Ahmedabad,"SVPI Airport Hansol, Ahmedabad - IITM",14-03-2025 10:00,23.076793,72.627874,NH3,3,8,5
India,Gujarat,Ahmedabad,"SVPI Airport Hansol, Ahmedabad - IITM",14-03-2025 10:00,23.076793,72.627874,SO2,2,51,12
India,Gujarat,Ahmedabad,"SVPI Airport Hansol, Ahmedabad - IITM",14-03-2025 10:00,23.076793,72.627874,CO,5,68,26
India,Gujarat,Ahmedabad,"SVPI Airport Hansol, Ahmedabad - IITM",14-03-2025 10:00,23.076793,72.627874,OZONE,2,61,15
India,Gujarat,Ahmedabad,"Raikhad, Ahmedabad - IITM",14-03-2025 10:00,23.020509,72.579261,NO2,1,50,11
India,Gujarat,Ahmedabad,"Rakhial, Ahmedabad - IITM",14-03-2025 10:00,23.016834,72.625775,PM2.5,40,96,61
India,Gujarat,Ahmedabad,"Rakhial, Ahmedabad - IITM",14-03-2025 10:00,23.016834,72.625775,PM10,41,94,61
India,Delhi,Delhi,"Sri Aurobindo Marg, Delhi - DPCC",14-03-2025 10:00,28.531346,77.190156,NO2,20,98,48
India,Delhi,Delhi,"Vivek Vihar, Delhi - DPCC",14-03-2025 10:00,28.672342,77.31526,NO2,28,94,56
India,Gujarat,Ahmedabad,"Sardar Vallabhbhai Patel Stadium, Ahmedabad - IITM",14-03-2025 10:00,23.04307,72.562968,PM10,55,125,76
India,Gujarat,Ahmedabad,"Sardar Vallabhbhai Patel Stadium, Ahmedabad - IITM",14-03-2025 10:00,23.04307,72.562968,OZONE,24,60,43
India,Haryana,Faridabad,"Sector 11, Faridabad - HSPCB",14-03-2025 10:00,28.376058,77.315741,OZONE,19,21,20
India,Haryana,Faridabad,"Sector 30, Faridabad - HSPCB",14-03-2025 10:00,28.4417,77.3217,CO,60,64,62
India,Haryana,Gurugram,"NISE Gwal Pahari, Gurugram - IMD",14-03-2025 10:00,28.422681,77.148944,OZONE,26,212,42
India,Haryana,Gurugram,"Sector-51, Gurugram - HSPCB",14-03-2025 10:00,28.4227,77.0667,PM2.5,75,149,103
India,Haryana,Gurugram,"Sector-51, Gurugram - HSPCB",14-03-2025 10:00,28.4227,77.0667,PM10,120,205,162
India,Haryana,Gurugram,"Sector-51, Gurugram - HSPCB",14-03-2025 10:00,28.4227,77.0667,NO2,10,11,10
India,Haryana,Gurugram,"Sector-51, Gurugram - HSPCB",14-03-2025 10:00,28.4227,77.0667,NH3,92,104,96
India,Karnataka,Belgaum,"Ramteerth Nagar, Belgaum - KSPCB",14-03-2025 10:00,15.888653,74.541751,NO2,NA,NA,NA
India,Karnataka,Belgaum,"Ramteerth Nagar, Belgaum - KSPCB",14-03-2025 10:00,15.888653,74.541751,NH3,1,8,4
India,Karnataka,Belgaum,"Ramteerth Nagar, Belgaum - KSPCB",14-03-2025 10:00,15.888653,74.541751,CO,14,29,24
India,Karnataka,Bengaluru,"BTM Layout, Bengaluru - CPCB",14-03-2025 10:00,12.9135218,77.5950804,PM2.5,28,41,33
India,Karnataka,Bengaluru,"BTM Layout, Bengaluru - CPCB",14-03-2025 10:00,12.9135218,77.5950804,OZONE,22,23,23
India,Haryana,Charkhi Dadri,"Mini Secretariat, Charkhi Dadri - HSPCB",14-03-2025 10:00,28.593883,76.270653,NO2,15,24,18
India,Haryana,Charkhi Dadri,"Mini Secretariat, Charkhi Dadri - HSPCB",14-03-2025 10:00,28.593883,76.270653,NH3,6,8,7
India,Haryana,Faridabad,"New Industrial Town, Faridabad - HSPCB",14-03-2025 10:00,28.39072,77.30059,PM2.5,26,168,71
India,Himachal Pradesh,Baddi,"HIMUDA Complex Phase-1, Baddi - HPPCB",14-03-2025 10:00,30.943887,76.801991,NO2,2,20,9
India,Himachal Pradesh,Baddi,"HIMUDA Complex Phase-1, Baddi - HPPCB",14-03-2025 10:00,30.943887,76.801991,SO2,2,57,17
India,Jammu_and_Kashmir,Srinagar,"Rajbagh, Srinagar - JKSPCB",14-03-2025 10:00,34.066206,74.81982,PM10,29,43,32
India,Gujarat,Vatva,"Phase-4 GIDC, Vatva - GPCB",14-03-2025 10:00,22.969611,72.6435,PM10,54,130,81
India,Gujarat,Vatva,"Phase-4 GIDC, Vatva - GPCB",14-03-2025 10:00,22.969611,72.6435,NO2,30,62,45
India,Haryana,Gurugram,"Teri Gram, Gurugram - HSPCB",14-03-2025 10:00,28.4275,77.1465,NH3,8,27,22
India,Haryana,Gurugram,"Teri Gram, Gurugram - HSPCB",14-03-2025 10:00,28.4275,77.1465,OZONE,21,42,26
India,Haryana,Charkhi Dadri,"Mini Secretariat, Charkhi Dadri - HSPCB",14-03-2025 10:00,28.593883,76.270653,PM2.5,59,263,161
India,Karnataka,Belgaum,"Ramteerth Nagar, Belgaum - KSPCB",14-03-2025 10:00,15.888653,74.541751,PM2.5,21,52,33
India,Gujarat,Surat,"Science Center, Surat - SMC",14-03-2025 10:00,21.170046,72.795405,SO2,44,52,46
India,Karnataka,Hassan,"B.Katihalli, Hassan - KSPCB",14-03-2025 10:00,13.008556,76.125258,SO2,1,1,1
India,Karnataka,Haveri,"Ashwini Nagar, Haveri - KSPCB",14-03-2025 10:00,14.7918,75.3896,CO,22,23,22
India,Karnataka,Hubballi,"Lingaraj Nagar, Hubballi - KSPCB",14-03-2025 10:00,15.3714823,75.1160168,PM2.5,38,40,39
India,Karnataka,Kalaburagi,"Lal Bahadur Shastri Nagar, Kalaburagi - KSPCB",14-03-2025 10:00,17.321993,76.822628,PM10,36,62,47
India,Karnataka,Kalaburagi,"Lal Bahadur Shastri Nagar, Kalaburagi - KSPCB",14-03-2025 10:00,17.321993,76.822628,NO2,11,13,12
India,Karnataka,Bengaluru,"Silk Board, Bengaluru - KSPCB",14-03-2025 10:00,12.917348,77.622813,NH3,1,4,2
India,Karnataka,Bidar,"Naubad, Bidar - KSPCB",14-03-2025 10:00,17.930306,77.482194,PM2.5,50,151,82
India,Karnataka,Bidar,"Naubad, Bidar - KSPCB",14-03-2025 10:00,17.930306,77.482194,PM10,NA,NA,NA
India,Karnataka,Chikkaballapur,"Chikkaballapur Rural, Chikkaballapur - KSPCB",14-03-2025 10:00,13.428828,77.731418,PM2.5,22,311,61
India,Karnataka,Bengaluru,"Bapuji Nagar, Bengaluru - KSPCB",14-03-2025 10:00,12.951913,77.539784,NH3,2,2,2
India,Karnataka,Bengaluru,"Bapuji Nagar, Bengaluru - KSPCB",14-03-2025 10:00,12.951913,77.539784,OZONE,25,83,39
India,Karnataka,Bengaluru,"City Railway Station, Bengaluru - KSPCB",14-03-2025 10:00,12.9756843,77.5660749,CO,48,92,80
India,Karnataka,Davanagere,"Devaraj Urs Badavane, Davanagere - KSPCB",14-03-2025 10:00,14.4758,75.9052,OZONE,19,20,19
India,Karnataka,Dharwad,"Kalabhavan, Dharwad - KSPCB",14-03-2025 10:00,15.459706,75.008381,SO2,2,6,3
India,Karnataka,Bengaluru,"Jigani, Bengaluru - KSPCB",14-03-2025 10:00,12.7816279,77.6299145,CO,42,43,42
India,Karnataka,Bengaluru,"Kasturi Nagar, Bengaluru - KSPCB",14-03-2025 10:00,13.003872,77.664217,SO2,8,9,9
India,Karnataka,Bengaluru,"Hombegowda Nagar, Bengaluru - KSPCB",14-03-2025 10:00,12.938539,77.5901,OZONE,14,75,35
India,Karnataka,Bengaluru,"Jigani, Bengaluru - KSPCB",14-03-2025 10:00,12.7816279,77.6299145,PM10,42,131,79
India,Karnataka,Bengaluru,"Hebbal, Bengaluru - KSPCB",14-03-2025 10:00,13.029152,77.585901,SO2,8,14,11
India,Karnataka,Bengaluru,"Hombegowda Nagar, Bengaluru - KSPCB",14-03-2025 10:00,12.938539,77.5901,SO2,4,48,12
India,Karnataka,Bengaluru,"Shivapura_Peenya, Bengaluru - KSPCB",14-03-2025 10:00,13.0246342,77.5080115,PM2.5,35,347,63
India,Karnataka,Bengaluru,"RVCE-Mailasandra, Bengaluru - KSPCB",14-03-2025 10:00,12.921418,77.502466,PM2.5,55,57,56
India,Karnataka,Madikeri,"Stuart Hill, Madikeri - KSPCB",14-03-2025 10:00,12.415911,75.73505,SO2,4,4,4
India,Karnataka,Mangalore,"Kadri, Mangalore - KSPCB",14-03-2025 10:00,12.88925,74.853,NO2,9,41,12
India,Karnataka,Mangalore,"Kadri, Mangalore - KSPCB",14-03-2025 10:00,12.88925,74.853,CO,20,32,22
India,Karnataka,Raichur,"Haji Colony, Raichur - KSPCB",14-03-2025 10:00,16.208139,77.348417,PM2.5,NA,NA,NA
India,Karnataka,Shivamogga,"Vinoba Nagara, Shivamogga - KSPCB",14-03-2025 10:00,13.94,75.555917,PM2.5,22,38,30
India,Karnataka,Tumakuru,"Thimmalapura, Tumakuru - KSPCB",14-03-2025 10:00,13.377516,77.099072,PM2.5,46,129,82
India,Karnataka,Udupi,"Brahmagiri, Udupi - KSPCB",14-03-2025 10:00,13.34194444,74.74694444,NH3,NA,NA,NA
India,Karnataka,Yadgir,"Collector Office, Yadgir - KSPCB",14-03-2025 10:00,16.7602,77.1428,PM2.5,45,110,63
India,Karnataka,Yadgir,"Collector Office, Yadgir - KSPCB",14-03-2025 10:00,16.7602,77.1428,PM10,78,144,101
